City_ID,City,Lat,Lng,Max Temp,Humidity,Cloudiness,Wind Speed,Country,Date
0,waitangi,-43.9535,-176.5597,13.230000000000018,90,100,5.81,NZ,1724455828
1,papatowai,-46.5619,169.4708,10.410000000000025,59,35,7.18,NZ,1724455829
2,edinburgh of the seven seas,-37.0676,-12.3116,12.160000000000025,79,75,10.15,SH,1724455830
3,tbilisskaya,45.3633,40.19,20.110000000000014,80,0,2.45,RU,1724455832
4,kimbe,-5.5502,150.1429,30.260000000000048,60,93,3.21,PG,1724455833
5,'ohonua,-5.5502,150.1429,30.260000000000048,60,93,3.21,PG,1724455833
6,albany,42.6001,-73.9662,23.230000000000018,70,84,1.99,US,1724455835
7,blackmans bay,-43.0167,147.3167,9.850000000000023,95,100,0.32,AU,1724455837
8,taiohae,-43.0167,147.3167,9.850000000000023,95,100,0.32,AU,1724455837
9,coquimbo,-29.9533,-71.3436,11.850000000000023,65,0,3.09,CL,1724455540
10,ploneour-lanvern,47.9,-4.2833,19.180000000000007,100,100,7.2,FR,1724455841
11,ola,59.5833,151.2833,16.150000000000034,52,100,6.04,RU,1724455842
12,isafjordur,66.0755,-23.124,3.32000000000005,96,100,7.81,IS,1724455843
13,belyy yar,53.6039,91.3903,12.939999999999998,94,0,2.0,RU,1724455845
14,hermanus,-34.4187,19.2345,13.270000000000039,79,1,6.62,ZA,1724455846
15,yelizovo,53.1873,158.3805,13.080000000000041,94,100,8.0,RU,1724455847
16,port elizabeth,-33.918,25.5701,18.160000000000025,59,0,5.14,ZA,1724455848
17,tilaran,10.4703,-84.9671,25.04000000000002,84,100,1.27,CR,1724455850
18,west island,-12.1568,96.8225,25.99000000000001,83,100,5.14,CC,1724455774
19,port-aux-francais,-49.35,70.2167,0.9900000000000091,77,78,15.87,TF,1724455852
20,adamstown,-25.066,-130.1015,18.80000000000001,67,90,5.64,PN,1724455853
21,jinchang,38.4953,102.1739,25.05000000000001,50,94,2.89,CN,1724455855
22,thompson,55.7435,-97.8558,21.090000000000032,60,75,1.54,CA,1724455715
23,bilibino,68.0546,166.4372,4.770000000000039,73,100,0.91,RU,1724455857
24,ribeira grande,38.5167,-28.7,25.99000000000001,88,14,2.68,PT,1724455859
25,callao,-12.0667,-77.15,16.510000000000048,82,100,3.6,PE,1724455860
26,yashkul',46.1711,45.3435,23.160000000000025,52,100,2.48,RU,1724455861
27,shar,49.5886,81.0453,21.120000000000005,47,73,3.46,KZ,1724455863
28,hawaiian paradise park,19.5933,-154.9731,27.629999999999995,88,100,5.66,US,1724455864
29,kingston,17.997,-76.7936,31.53000000000003,70,20,5.66,JM,1724455865
30,nova olimpia,-14.7972,-57.2881,30.58000000000004,21,4,2.82,BR,1724455866
31,invercargill,-46.4,168.35,11.120000000000005,58,16,4.02,NZ,1724455868
32,bel ombre,-4.6167,55.4167,26.910000000000025,78,40,2.57,SC,1724455869
33,island harbour,50.724,-1.2758,16.660000000000025,74,90,1.34,GB,1724455870
34,iqaluit,63.7506,-68.5145,9.850000000000023,93,100,0.0,CA,1724455872
35,taoudenni,22.6783,-3.9836,41.360000000000014,12,69,6.28,ML,1724455873
36,bethel,41.3712,-73.414,22.53000000000003,71,12,0.89,US,1724455812
37,bredasdorp,-34.5322,20.0403,9.600000000000023,94,0,2.69,ZA,1724455875
38,amungan,15.3652,119.9582,29.640000000000043,68,100,1.04,PH,1724455877
39,puerto natales,-51.7236,-72.4875,3.730000000000018,95,92,1.66,CL,1724455878
40,grytviken,-54.2811,-36.5092,-2.2799999999999727,85,20,4.0,GS,1724455879
41,bhamo,24.2667,97.2333,23.53000000000003,99,99,0.23,MM,1724455881
42,nuku'alofa,-21.1333,-175.2,24.189999999999998,83,75,8.23,TO,1724455882
43,ushuaia,-54.8,-68.3,7.810000000000002,66,40,4.12,AR,1724455883
44,nuuk,64.1835,-51.7216,6.340000000000032,100,100,1.54,GL,1724455789
45,port mathurin,-19.6833,63.4167,23.129999999999995,88,100,5.34,MU,1724455886
46,chifeng,42.2683,118.9636,22.75,70,2,2.15,CN,1724455887
47,tefe,-3.3542,-64.7114,31.060000000000002,66,0,0.0,BR,1724455889
48,sanniquellie,7.3622,-8.7061,21.560000000000002,99,91,2.06,LR,1724455890
49,muragacha,23.5333,88.4,25.57000000000005,94,100,2.58,IN,1724455891
50,susuman,62.7833,148.1667,16.970000000000027,41,14,0.76,RU,1724455893
51,arteche,12.2645,125.4048,28.170000000000016,78,86,1.28,PH,1724455894
52,cockburn town,21.4612,-71.1419,28.610000000000014,84,35,8.56,TC,1724455838
53,dryden,49.7833,-92.7503,27.160000000000025,47,0,1.54,CA,1724455896
54,ilulissat,69.22,-51.0991,7.160000000000025,93,100,2.57,GL,1724455697
55,gulf park estates,30.3919,-88.7611,32.99000000000001,43,0,3.09,US,1724455899
56,margaret river,-33.95,115.0667,12.110000000000014,76,99,12.8,AU,1724455900
57,happy valley-goose bay,53.3168,-60.3315,19.170000000000016,72,75,2.57,CA,1724455902
58,iskateley,67.6803,53.1512,11.5,84,8,4.08,RU,1724455903
59,inhambane,-23.865,35.3833,18.05000000000001,62,27,3.37,MZ,1724455904
60,hadibu,12.65,54.0333,25.57000000000005,82,100,7.03,YE,1724455905
61,jamestown,42.097,-79.2353,20.80000000000001,64,0,3.09,US,1724455822
62,bojnurd,37.4747,57.329,17.970000000000027,36,0,0.0,IR,1724455908
63,utrik,11.2278,169.8474,28.510000000000048,76,84,8.99,MH,1724455909
64,dobryanka,58.4619,56.4165,7.640000000000043,97,64,1.51,RU,1724455911
65,zhosaly,45.4878,64.0781,19.860000000000014,50,0,4.05,KZ,1724455912
66,yeniseysk,58.4497,92.1703,12.550000000000011,91,74,1.64,RU,1724455913
67,wailua homesteads,22.0669,-159.378,28.439999999999998,75,100,6.17,US,1724455915
68,stanley,54.868,-1.6985,13.010000000000048,78,0,5.14,GB,1724455916
69,muana,-1.5283,-49.2167,26.33000000000004,77,85,3.03,BR,1724455917
70,yung shue wan,22.2333,114.1167,29.629999999999995,90,81,2.84,HK,1724455919
71,georgetown,5.4112,100.3354,25.960000000000036,93,20,1.54,MY,1724455920
72,colac,-38.3333,143.5833,14.230000000000018,72,43,5.89,AU,1724455922
73,yellowknife,62.456,-114.3525,15.230000000000018,94,75,4.12,CA,1724455924
74,shambu,9.5667,37.1,10.020000000000039,95,98,0.62,ET,1724455925
75,childress,34.4264,-100.204,43.14000000000004,11,0,3.09,US,1724455926
76,mejit,10.2753,170.8646,28.260000000000048,80,40,7.95,MH,1724455927
77,avarua,-21.2078,-159.775,25.03000000000003,65,100,6.69,CK,1724455775
78,malacca,2.196,102.2405,23.02000000000004,99,20,0.0,MY,1724455666
79,badger,64.8,-147.5333,10.550000000000011,86,100,4.63,US,1724455931
80,vingt cinq,64.8,-147.5333,10.550000000000011,86,100,4.63,US,1724455931
81,dunedin,-45.8742,170.5036,14.890000000000043,54,14,0.89,NZ,1724455934
82,anadyr,64.75,177.4833,7.78000000000003,87,100,3.58,RU,1724455935
83,new mirpur,33.1418,73.7674,25.590000000000032,72,6,1.71,PK,1724455936
84,la passe,45.5549,-0.8967,19.180000000000007,92,5,2.29,FR,1724455938
85,cromer,52.9312,1.2989,16.189999999999998,63,92,4.99,GB,1724455939
86,puerto tirol,-27.3722,-59.0821,12.270000000000039,71,75,3.6,AR,1724455940
87,trinidad,-14.8333,-64.9,24.99000000000001,69,40,2.06,BO,1724455942
88,luderitz,-26.6481,15.1594,13.270000000000039,84,71,1.64,NA,1724455943
89,lihue,21.9789,-159.3672,28.77000000000004,72,100,6.17,US,1724455944
90,tadine,-21.55,167.8833,23.340000000000032,59,47,4.88,NC,1724455946
91,tulun,54.5611,100.5792,13.080000000000041,84,1,2.08,RU,1724455947
92,chonchi,-42.6128,-73.8092,5.6200000000000045,96,69,0.97,CL,1724455948
93,tazovsky,67.4667,78.7,10.090000000000032,87,97,3.06,RU,1724455949
94,east london,-33.0153,27.9116,18.590000000000032,48,66,6.97,ZA,1724455951
95,george town,5.4112,100.3354,25.960000000000036,93,20,1.54,MY,1724455920
96,saksaul'skiy,5.4112,100.3354,25.960000000000036,93,20,1.54,MY,1724455920
97,kerikeri,-35.2268,173.9474,14.550000000000011,79,100,1.4,NZ,1724455955
98,naze,28.3667,129.4833,28.510000000000048,83,100,2.46,JP,1724455956
99,kozyatyn,49.7143,28.8339,14.400000000000034,53,17,1.23,UA,1724455957
100,luneville,48.6,6.5,17.920000000000016,93,26,3.04,FR,1724455860
101,whitehorse,60.7161,-135.0538,13.430000000000007,58,75,1.54,CA,1724455960
102,tiksi,71.6872,128.8694,6.310000000000002,90,99,0.84,RU,1724455961
103,khandyga,62.6667,135.6,17.340000000000032,76,22,0.71,RU,1724455962
104,udachny,66.4167,112.4,15.870000000000005,84,100,3.55,RU,1724455964
105,dudinka,69.4058,86.1778,9.120000000000005,85,96,2.75,RU,1724455965
106,nova sintra,14.8667,-24.7167,27.03000000000003,81,38,3.95,CV,1724455966
107,tshabong,-26.05,22.45,16.760000000000048,35,0,10.39,BW,1724455968
108,campo mourao,-24.0456,-52.3831,14.490000000000009,92,100,2.46,BR,1724455969
109,lundazi,-12.2929,33.1782,15.770000000000039,69,1,4.9,ZM,1724455970
110,morehead city,34.7229,-76.726,25.03000000000003,74,0,4.92,US,1724455716
111,prince rupert,54.3161,-130.3201,14.050000000000011,84,100,2.06,CA,1724455714
112,alofi,-19.0595,-169.9187,24.939999999999998,78,75,8.23,NU,1724455974
113,zouerate,22.7187,-12.4521,29.82000000000005,23,4,7.88,MR,1724455975
114,kodiak,57.79,-152.4072,12.730000000000018,76,0,2.57,US,1724455977
115,glace bay,46.1969,-59.957,17.700000000000045,89,40,2.57,CA,1724455978
116,upper dir,35.2058,71.8756,18.79000000000002,74,0,2.27,PK,1724455979
117,mirwah gorchani,25.3093,69.0521,27.939999999999998,76,0,6.06,PK,1724455980
118,puerto cabezas,14.0351,-83.3888,28.980000000000018,89,40,3.09,NI,1724455982
119,howrah,22.5892,88.3103,26.0,100,75,2.57,IN,1724455983
120,college,64.8569,-147.8028,10.600000000000023,86,100,4.63,US,1724455984
121,krasnovishersk,60.4078,57.082,8.650000000000034,84,96,1.05,RU,1724455986
122,northam,51.0333,-4.2167,14.78000000000003,89,100,6.86,GB,1724455987
123,severo-yeniseyskiy,60.3725,93.0408,10.270000000000039,90,38,1.05,RU,1724455988
124,nar'yan-mar,67.6713,53.087,11.53000000000003,84,7,4.05,RU,1724455989
125,yerofey pavlovich,53.9667,121.9667,16.390000000000043,65,100,2.81,RU,1724455991
126,puerto ayora,-0.7393,-90.3518,19.75,90,54,2.24,EC,1724455992
127,weno,7.4515,151.8468,28.79000000000002,71,100,2.69,FM,1724455993
128,puerto san carlos,7.4515,151.8468,28.79000000000002,71,100,2.69,FM,1724455993
129,obigarm,38.7173,69.7088,14.680000000000007,37,2,1.44,TJ,1724455996
130,ergli,56.8975,25.6367,16.460000000000036,65,100,4.28,LV,1724455997
131,qaqortoq,60.7167,-46.0333,4.810000000000002,93,40,1.79,GL,1724455999
132,st. john's,47.5649,-52.7093,16.650000000000034,91,75,7.72,CA,1724455762
133,ta`u,-14.2336,-169.5144,25.53000000000003,71,32,8.33,AS,1724456001
134,as samawah,31.332,45.2944,36.74000000000001,13,0,4.05,IQ,1724456002
135,kolpashevo,58.3131,82.9089,14.980000000000018,78,100,4.63,RU,1724456004
136,sao felix do xingu,-6.6447,-51.995,27.840000000000032,34,11,1.01,BR,1724456005
137,aasiaat,68.7098,-52.8699,3.57000000000005,98,100,2.52,GL,1724456006
138,hithadhoo,-0.6,73.0833,28.120000000000005,75,31,2.86,MV,1724456007
139,mount pearl,47.5166,-52.7813,16.189999999999998,92,75,7.72,CA,1724456009
140,nguigmi,14.2495,13.1092,29.02000000000004,64,61,3.47,NE,1724456010
141,sihanoukville,10.6093,103.5296,24.970000000000027,94,40,1.54,KH,1724456011
142,broome,42.2506,-75.833,21.850000000000023,61,76,1.51,US,1724456013
143,saurimo,-9.6608,20.3916,16.930000000000007,26,0,2.66,AO,1724456014
144,fale old settlement,-9.3852,-171.2468,27.420000000000016,79,66,8.05,TK,1724456015
145,pamandzi,-12.7967,45.2794,24.879999999999995,83,0,8.23,YT,1724456016
146,ternate,0.8,127.4,26.80000000000001,79,99,3.61,ID,1724456018
147,tommot,58.9564,126.2925,17.189999999999998,67,59,1.67,RU,1724456019
148,cotonou,6.3654,2.4183,24.480000000000018,90,100,6.17,BJ,1724455778
149,aykhal,66.0,111.5,14.32000000000005,88,100,3.45,RU,1724456022
150,tranovaho,66.0,111.5,14.32000000000005,88,100,3.45,RU,1724456022
151,kenai,60.5544,-151.2583,15.080000000000041,72,0,8.23,US,1724456024
152,afaahiti,-17.75,-149.2833,23.700000000000045,75,100,10.51,PF,1724456026
153,kulhudhuffushi,6.6221,73.07,27.470000000000027,79,83,5.55,MV,1724456027
154,nemuro,43.3236,145.575,21.180000000000007,92,62,8.18,JP,1724456028
155,puerto baquerizo moreno,-0.9,-89.6,19.510000000000048,78,63,5.72,EC,1724455931
156,chibougamau,49.9168,-74.3659,23.79000000000002,41,0,2.57,CA,1724456031
157,namdrik,5.5994,168.1028,29.08000000000004,71,89,3.13,MH,1724456032
158,undurkhaan,47.3194,110.6556,15.200000000000045,64,22,4.08,MN,1724456033
159,walvis bay,-22.9575,14.5053,14.200000000000045,83,70,3.65,NA,1724456035
160,almodovar,37.4959,-8.0937,18.460000000000036,90,0,1.9,PT,1724456036
161,enewetak,11.3474,162.3373,29.100000000000023,77,91,7.62,MH,1724456037
162,alo,6.5486,4.2686,23.910000000000025,92,100,3.67,NG,1724456038
163,macusani,-14.0833,-70.4333,4.439999999999998,83,15,2.89,PE,1724456040
164,tazacorte,28.629,-17.9293,22.54000000000002,86,20,8.75,ES,1724456041
165,muzayri',28.629,-17.9293,22.54000000000002,86,20,8.75,ES,1724456041
166,kone,-21.0595,164.8658,25.28000000000003,51,78,2.05,NC,1724456044
167,polonnaruwa,7.9333,81.0,24.27000000000004,84,100,2.15,LK,1724456045
168,itaituba,-4.2761,-55.9836,27.930000000000007,51,88,0.99,BR,1724456046
169,antofagasta,-23.6464,-70.398,13.660000000000025,67,0,3.82,CL,1724455540
170,saudarkrokur,65.7461,-19.6394,3.8500000000000227,99,100,5.32,IS,1724456049
171,gajendragarh,15.7333,75.9833,22.670000000000016,87,100,7.02,IN,1724456050
172,vorgashor,67.5833,63.95,7.6200000000000045,91,98,2.84,RU,1724456051
173,carnarvon,-24.8667,113.6333,20.890000000000043,63,19,7.94,AU,1724456053
174,bridgewater,44.38,-64.52,18.99000000000001,74,7,4.12,CA,1724455915
175,chigwell,51.62,0.076,16.77000000000004,74,95,3.6,GB,1724456055
176,mount gambier,-37.8333,140.7667,16.230000000000018,73,40,4.66,AU,1724456056
177,touros,-5.1989,-35.4608,24.05000000000001,82,10,5.41,BR,1724456058
178,shimoda,34.6667,138.95,28.760000000000048,75,100,3.81,JP,1724456059
179,fallon,39.4735,-118.7774,23.930000000000007,27,75,8.23,US,1724456060
180,natal,-5.795,-35.2094,25.360000000000014,78,75,6.17,BR,1724455960
181,mili,6.0815,171.735,28.83000000000004,74,58,3.02,MH,1724456063
182,nukunonu,6.0815,171.735,28.83000000000004,74,58,3.02,MH,1724456063
183,san clemente del tuyu,-36.3569,-56.7235,6.020000000000039,85,39,3.82,AR,1724456065
184,oriximina,-1.7656,-55.8661,29.25,54,75,2.33,BR,1724456067
185,pyhajarvi,67.0701,27.2176,14.129999999999995,95,93,1.27,FI,1724456068
186,klaksvik,62.2266,-6.589,9.800000000000011,86,12,6.71,FO,1724456069
187,sainyabuli,19.25,101.75,22.310000000000002,99,100,0.07,LA,1724456071
188,koungou,-12.7336,45.2042,24.840000000000032,83,0,8.23,YT,1724456072
189,constantia,44.1833,28.65,22.379999999999995,66,5,3.55,RO,1724455826
190,puerto la cruz,10.2167,-64.6167,27.879999999999995,81,72,3.39,VE,1724456051
191,tura,25.5198,90.2201,23.629999999999995,96,63,2.56,IN,1724455968
192,longyearbyen,78.2186,15.6401,9.910000000000025,71,40,7.72,SJ,1724456077
193,praia da vitoria,38.7333,-27.0667,25.420000000000016,100,75,5.24,PT,1724456078
194,cabo san lucas,22.8909,-109.9124,32.170000000000016,62,0,4.12,MX,1724456041
195,uturoa,-16.7333,-151.4333,25.370000000000005,78,99,9.39,PF,1724456081
196,libreville,0.3925,9.4537,23.840000000000032,79,96,3.95,GA,1724456082
197,puerto deseado,-47.7503,-65.8938,5.150000000000034,78,96,2.24,AR,1724455821
198,binh long,11.6512,106.6071,25.160000000000025,93,100,1.84,VN,1724456085
199,guatrache,-37.6678,-63.5302,7.730000000000018,59,100,2.82,AR,1724456086
200,taltal,-25.4,-70.4833,18.02000000000004,43,2,0.86,CL,1724455866
201,vila velha,-20.3297,-40.2925,23.970000000000027,82,0,7.72,BR,1724455993
202,colonia,50.9333,6.95,22.129999999999995,80,75,3.6,DE,1724456090
203,ijuw,50.9333,6.95,22.129999999999995,80,75,3.6,DE,1724456090
204,queenstown,-31.8976,26.8753,15.170000000000016,33,100,3.79,ZA,1724455829
205,petropavlovsk-kamchatsky,53.0452,158.6483,12.330000000000041,94,100,8.0,RU,1724456094
206,al bardiyah,31.7561,25.0865,25.870000000000005,76,0,3.61,LY,1724456095
207,olonkinbyen,70.9221,-8.7187,6.25,91,100,1.93,SJ,1724456097
208,horta,38.5333,-28.6333,25.57000000000005,88,34,2.68,PT,1724456098
209,ust-nera,64.5667,143.2,18.53000000000003,50,100,2.56,RU,1724456099
210,labrador city,52.9463,-66.9114,18.950000000000045,68,20,0.0,CA,1724456037
211,sitka,57.0531,-135.33,13.939999999999998,88,100,2.06,US,1724456102
212,salekhard,66.53,66.6019,7.7000000000000455,90,45,0.52,RU,1724456103
213,papao,-17.75,-149.55,26.82000000000005,76,100,11.25,PF,1724456104
214,abadeh,31.1608,52.6506,21.340000000000032,20,2,1.47,IR,1724456106
215,vila franca do campo,37.7167,-25.4333,24.230000000000018,93,16,2.0,PT,1724456107
216,okha,53.5739,142.9478,12.160000000000025,91,100,10.43,RU,1724456108
217,kuanda,56.3161,116.0806,18.730000000000018,65,89,0.36,RU,1724456110
218,la mira,18.035,-102.3266,28.470000000000027,72,92,2.17,MX,1724456111
219,mar del plata,-38.0,-57.56,7.270000000000039,86,0,2.68,AR,1724455661
220,meadow lake,34.8014,-106.5436,30.710000000000036,32,36,1.67,US,1724456114
221,sanctuary point,-35.1114,150.629,19.04000000000002,52,87,1.96,AU,1724456115
222,berezovyy,51.6667,135.7,17.24000000000001,71,69,0.15,RU,1724456116
223,broken hill,-31.95,141.4333,21.410000000000025,42,71,2.96,AU,1724456118
224,champerico,14.3,-91.9167,28.560000000000002,76,32,4.3,GT,1724456119
225,lebu,-37.6167,-73.65,7.360000000000014,80,27,0.97,CL,1724455873
226,vorkuta,67.5,64.0,7.75,89,98,2.8,RU,1724456122
227,tolanaro,-25.0319,46.9987,18.04000000000002,72,75,4.12,MG,1724456123
228,wakkanai,45.4094,141.6739,18.980000000000018,81,87,7.83,JP,1724456124
229,liuhe,42.2401,125.7172,21.170000000000016,79,100,0.98,CN,1724456125
230,port augusta,-32.5,137.7667,22.04000000000002,39,2,1.72,AU,1724456127
231,jiazi,22.8779,116.067,27.99000000000001,86,9,3.94,CN,1724456128
232,fort-shevchenko,44.5086,50.263,23.390000000000043,61,47,6.33,KZ,1724456129
233,vadso,70.0744,29.7487,14.090000000000032,77,100,2.06,NO,1724456131
234,fort st. john,56.2499,-120.8529,21.939999999999998,40,75,4.63,CA,1724455972
235,dalandzadgad,43.5708,104.425,19.29000000000002,51,94,3.81,MN,1724456133
236,pisco,-13.7,-76.2167,16.03000000000003,82,3,7.2,PE,1724456134
237,zhanibek,49.4167,46.85,19.710000000000036,41,60,3.01,KZ,1724456136
238,gorom-gorom,14.4439,-0.2361,28.230000000000018,63,71,3.9,BF,1724456137
239,rukban,14.4439,-0.2361,28.230000000000018,63,71,3.9,BF,1724456137
240,ilha de mocambique,-15.0342,40.7358,23.939999999999998,61,1,7.47,MZ,1724456140
241,atafu village,-8.5421,-172.5159,27.470000000000027,80,98,8.08,TK,1724456141
242,khorixas,-20.3667,14.9667,17.49000000000001,39,0,2.18,NA,1724456142
243,cidreira,-30.1811,-50.2056,11.390000000000043,76,94,4.7,BR,1724456144
244,balqash,46.8481,74.995,20.80000000000001,43,19,4.27,KZ,1724456145
245,sishilichengzi,46.8481,74.995,20.80000000000001,43,19,4.27,KZ,1724456145
246,san andres,12.5847,-81.7006,30.010000000000048,74,20,3.09,CO,1724455924
247,codrington,-38.2667,141.9667,15.770000000000039,75,42,6.36,AU,1724456149
248,selfoss,63.9331,-20.9971,7.25,74,100,9.47,IS,1724456150
249,ciudad lazaro cardenas,17.9583,-102.2,28.960000000000036,71,87,2.88,MX,1724456151
250,ichinohe,40.2069,141.3017,29.939999999999998,56,21,3.56,JP,1724456153
251,mirpur sakro,24.5474,67.6277,27.670000000000016,78,36,6.93,PK,1724456154
252,kavaratti,10.5669,72.642,26.390000000000043,87,100,6.36,IN,1724456155
253,yuzhno-kurilsk,44.0306,145.8556,24.340000000000032,81,33,4.65,RU,1724456157
254,olgii,44.0306,145.8556,24.340000000000032,81,33,4.65,RU,1724456157
255,saipan,15.1355,145.701,30.390000000000043,79,75,3.09,MP,1724456159
256,castillos,-34.1667,-53.8333,8.03000000000003,65,79,5.01,UY,1724456160
257,ofunato,39.0717,141.7167,28.950000000000045,73,6,2.68,JP,1724456162
258,north bend,43.4065,-124.2243,15.700000000000045,94,100,4.12,US,1724456163
259,solwezi,-12.1688,26.3894,14.060000000000002,49,3,1.81,ZM,1724456164
260,punta arenas,-53.15,-70.9167,7.060000000000002,76,75,6.17,CL,1724456004
261,katabu,-4.9333,122.5167,27.410000000000025,70,96,1.86,ID,1724456167
262,parepare,-4.9333,122.5167,27.410000000000025,70,96,1.86,ID,1724456167
263,pemangkat,1.1667,108.9667,24.910000000000025,90,100,2.71,ID,1724456170
264,pantai cenang,1.1667,108.9667,24.910000000000025,90,100,2.71,ID,1724456170
265,huron,41.1501,-82.5499,22.510000000000048,71,62,1.96,US,1724456172
266,mana,5.6592,-53.7767,27.160000000000025,81,17,6.14,GF,1724456173
267,janakpur,26.7183,85.9065,26.08000000000004,87,42,3.46,NP,1724456175
268,nadym,65.5333,72.5167,8.680000000000007,96,99,4.07,RU,1724456176
269,pribram,49.6899,14.0104,14.180000000000007,81,25,1.78,CZ,1724456177
270,mumbwa,-14.9783,27.0619,16.79000000000002,32,1,4.15,ZM,1724456179
271,mbandaka,0.0487,18.2603,22.27000000000004,82,37,1.39,CD,1724456180
272,raduzhny,62.0961,77.475,11.700000000000045,83,100,4.9,RU,1724456181
273,cidade velha,14.9167,-23.6167,27.260000000000048,89,75,5.14,CV,1724456183
274,contamana,-7.3333,-75.0167,28.090000000000032,55,61,1.27,PE,1724456184
275,beroroha,-21.6667,45.1667,15.629999999999995,78,0,2.01,MG,1724456185
276,cargados carajos,-21.6667,45.1667,15.629999999999995,78,0,2.01,MG,1724456185
277,sandnessjoen,66.0217,12.6316,13.25,96,100,4.66,NO,1724456188
278,jayapura,-2.5333,140.7,29.660000000000025,71,99,1.65,ID,1724456189
279,kasempa,-13.4584,25.8338,16.600000000000023,39,3,3.98,ZM,1724456190
280,skiathos,39.1623,23.4909,28.870000000000005,65,0,0.99,GR,1724456149
281,isangel,-19.55,169.2667,24.510000000000048,59,2,3.11,VU,1724456053
282,newman,37.3138,-121.0208,23.360000000000014,48,100,2.68,US,1724456194
283,gorontalo,0.5412,123.0595,24.140000000000043,94,95,0.61,ID,1724456196
284,la ronge,55.1001,-105.2842,23.140000000000043,38,0,4.12,CA,1724456197
285,tralee,52.2704,-9.7026,9.610000000000014,96,48,2.51,IE,1724456198
286,buala,-8.145,159.5921,27.75,73,99,4.8,SB,1724456199
287,launceston,-41.45,147.1667,10.800000000000011,93,100,3.6,AU,1724456201
288,sao tome,0.3365,6.7273,23.910000000000025,79,99,4.05,ST,1724456202
289,geraldton,-28.7667,114.6,17.230000000000018,82,100,9.26,AU,1724456203
290,sanger,36.708,-119.556,27.29000000000002,33,0,4.63,US,1724455906
291,cill airne,52.05,-9.5167,9.25,96,27,2.15,IE,1724456206
292,sarina,-21.4333,149.2167,24.230000000000018,2,28,3.46,AU,1724456207
293,luwuk,-0.9516,122.7875,23.350000000000023,85,93,2.79,ID,1724456208
294,stony hill,18.0754,-76.7911,29.24000000000001,70,20,5.66,JM,1724456210
295,hengyang,26.8881,112.615,28.310000000000002,82,13,1.75,CN,1724456211
296,lautoka,-17.6167,177.4667,27.920000000000016,54,40,4.63,FJ,1724456212
297,siwa oasis,29.2041,25.5195,30.83000000000004,41,2,4.11,EG,1724456214
298,uliastay,47.7417,96.8444,14.580000000000041,38,72,2.51,MN,1724456215
299,znamenskoye,57.1281,73.8282,11.480000000000018,98,74,1.8,RU,1724456216
300,markovo,57.3206,107.0881,14.490000000000009,91,86,1.19,RU,1724456217
301,kudymkar,59.0173,54.656,8.710000000000036,90,84,1.54,RU,1724456219
302,acapulco de juarez,16.8634,-99.8901,29.900000000000034,70,75,3.6,MX,1724456220
303,karatuzskoye,53.6072,92.8667,13.480000000000018,70,44,1.41,RU,1724456221
304,lata,40.1629,-8.3327,15.610000000000014,99,28,0.47,PT,1724456223
305,petrolina,-9.3986,-40.5008,28.03000000000003,42,75,5.66,BR,1724455955
306,oodweyne,9.4092,45.064,23.0,52,98,7.06,SO,1724456225
307,margate,51.3813,1.3862,16.04000000000002,74,73,0.45,GB,1724456227
308,concepcion,-36.8275,-73.0496,8.900000000000034,76,20,2.57,CL,1724455768
309,port saint john's,-31.6229,29.5448,15.510000000000048,78,56,6.81,ZA,1724456229
310,boaco,12.4722,-85.6586,24.420000000000016,88,73,2.52,NI,1724456230
311,remire-montjoly,4.9167,-52.2667,28.02000000000004,83,0,2.57,GF,1724456232
312,talnakh,69.4865,88.3972,9.270000000000039,92,79,2.75,RU,1724456233
313,tsiombe,-25.3,45.4833,14.490000000000009,68,24,4.09,MG,1724456234
314,jindabyne,-36.4167,148.6333,13.650000000000034,69,0,8.94,AU,1724456236
315,nasiriyah,31.0521,46.261,37.5,11,4,3.38,IQ,1724456237
316,cottage grove,44.8277,-92.9438,27.220000000000027,68,40,3.09,US,1724455639
317,cova figueira,14.8905,-24.2934,21.370000000000005,84,43,2.9,CV,1724456240
318,blythe,33.6058,-114.605,41.26000000000005,9,0,7.2,US,1724456068
319,mangrol,21.1167,70.1167,27.560000000000002,85,100,6.83,IN,1724456242
320,arraial do cabo,-22.9661,-42.0278,25.920000000000016,65,0,6.69,BR,1724456243
321,holmsund,63.706,20.3641,15.970000000000027,93,100,7.6,SE,1724456245
322,mossel bay,-34.1831,22.146,13.960000000000036,80,0,7.1,ZA,1724456246
323,mirny,62.5353,113.9611,16.980000000000018,75,100,3.24,RU,1724456247
324,crane,31.3974,-102.3501,38.07000000000005,20,15,8.77,US,1724456249
325,chimore,-16.9833,-65.1333,20.090000000000032,80,61,0.87,BO,1724456250
326,phan rang-thap cham,11.5667,108.9833,26.379999999999995,77,100,1.08,VN,1724456251
327,perevoz,55.5961,44.5446,13.660000000000025,68,6,2.97,RU,1724456252
328,sharm el-sheikh,27.8518,34.305,32.08000000000004,48,0,3.09,EG,1724456254
329,lorengau,-2.0226,147.2712,28.439999999999998,78,87,4.7,PG,1724456255
330,san antonio de pale,-1.4014,5.6325,23.160000000000025,83,92,5.65,GQ,1724456256
331,okhotsk,59.3833,143.3,15.439999999999998,65,100,2.03,RU,1724456258
332,port alfred,-33.5906,26.891,20.840000000000032,40,72,6.16,ZA,1724456259
333,choibalsan,48.0667,114.5,16.850000000000023,73,0,5.84,MN,1724456260
334,jalingo,8.8833,11.3667,22.650000000000034,96,84,1.34,NG,1724456261
335,mizdah,31.4451,12.9801,23.410000000000025,75,24,3.11,LY,1724456263
336,monterrey,25.6667,-100.3167,35.370000000000005,42,37,5.05,MX,1724456235
337,vilyuchinsk,52.9306,158.4028,13.150000000000034,97,100,10.3,RU,1724456265
338,nacala,-14.5428,40.6728,20.700000000000045,72,1,4.06,MZ,1724456266
339,nyurba,63.2842,118.3319,18.75,65,100,2.35,RU,1724456268
340,ceeldheer,3.8488,47.1806,24.400000000000034,87,29,7.98,SO,1724456269
341,freetown,8.484,-13.2299,25.840000000000032,94,75,6.69,SL,1724456270
342,ravar,31.2656,56.8055,26.930000000000007,17,0,2.3,IR,1724456272
343,san cataldo,37.4841,13.9854,23.260000000000048,77,73,1.02,IT,1724456273
344,salalah,17.0151,54.0924,24.05000000000001,94,100,1.03,OM,1724456274
345,lubango,-14.9172,13.4925,15.920000000000016,39,9,3.6,AO,1724456276
346,saint-philippe,-21.3585,55.7679,20.83000000000004,58,7,5.86,RE,1724456277
347,westport,41.1414,-73.3553,23.660000000000025,65,1,0.89,US,1724456134
348,smithers,54.7804,-127.1743,21.180000000000007,43,75,3.6,CA,1724455993
349,alexandria,31.2156,29.9553,27.560000000000002,69,0,3.66,EG,1724456011
350,ribeira brava,32.65,-17.0667,25.350000000000023,72,0,0.34,PT,1724456283
351,xique xique,-10.8229,-42.7282,25.879999999999995,45,1,4.53,BR,1724455587
352,carutapera,-1.195,-46.02,25.83000000000004,72,73,3.9,BR,1724456285
353,al mijlad,11.0333,27.7333,24.930000000000007,80,100,4.26,SD,1724456287
354,ntoum,0.3833,9.7833,22.620000000000005,83,99,0.8,GA,1724456288
355,port lincoln,-34.7333,135.8667,16.390000000000043,68,0,4.59,AU,1724456224
356,chui,-33.6971,-53.4616,8.200000000000045,70,68,4.33,UY,1724456291
357,acarau,-2.8856,-40.12,25.400000000000034,75,54,7.76,BR,1724456292
358,sao caetano de odivelas,-0.7473,-48.0246,25.890000000000043,72,92,4.48,BR,1724456111
359,punta del este,-34.9667,-54.95,9.060000000000002,82,40,7.72,UY,1724456294
360,belo sur tsiribihina,-19.7,44.55,16.870000000000005,91,0,1.6,MG,1724456296
361,luanda,-8.8368,13.2343,22.0,88,40,2.06,AO,1724456190
362,barranca,-10.75,-77.7667,16.170000000000016,84,66,3.36,PE,1724456298
363,mahina,-17.5065,-149.489,26.870000000000005,65,75,2.57,PF,1724456300
364,oistins,13.0667,-59.5333,29.05000000000001,79,40,6.69,BB,1724456301
365,nizao,18.25,-70.2,28.27000000000004,75,100,4.63,DO,1724456302
366,sisimiut,66.9395,-53.6735,6.520000000000039,91,100,0.55,GL,1724456303
367,tocoa,15.6833,-86.0,30.79000000000002,100,100,0.36,HN,1724456305
368,north ogden,41.3072,-111.9602,31.480000000000018,28,41,6.71,US,1724456306
369,kolyvan',55.3053,82.7391,13.930000000000007,95,76,3.1,RU,1724456307
370,sombor,45.7742,19.1122,21.74000000000001,40,60,3.31,RS,1724456309
371,mumford,5.2618,-0.759,23.420000000000016,93,100,5.5,GH,1724456310
372,la sarre,48.7958,-79.2001,21.07000000000005,55,93,3.29,CA,1724456153
373,dakhla,23.6848,-15.958,19.99000000000001,90,0,11.05,EH,1724456313
374,kota kinabalu,5.9749,116.0724,23.99000000000001,94,20,1.54,MY,1724456314
375,puerto santa,-8.9906,-78.6456,16.950000000000045,84,59,5.4,PE,1724456315
376,grand baie,-20.0182,57.5802,20.25,82,86,4.25,MU,1724456316
377,cannonvale,-20.2833,148.7,21.660000000000025,76,70,5.34,AU,1724456318
378,foggia,41.45,15.5333,24.879999999999995,78,0,1.54,IT,1724456286
379,hayma',41.45,15.5333,24.879999999999995,78,0,1.54,IT,1724456286
380,ouro preto do oeste,-10.7481,-62.2158,30.560000000000002,29,6,2.41,BR,1724456322
381,new plymouth,-39.0667,174.0833,14.490000000000009,78,95,4.93,NZ,1724456323
382,lake monticello,37.9232,-78.3347,23.120000000000005,71,0,1.53,US,1724456324
383,ancud,-41.8697,-73.8203,6.510000000000048,84,45,2.59,CL,1724456325
384,bafoulabe,13.8065,-10.8321,22.439999999999998,94,90,5.98,ML,1724456327
385,am djarass,13.8065,-10.8321,22.439999999999998,94,90,5.98,ML,1724456327
386,muisne,0.6,-80.0333,24.07000000000005,82,86,4.6,EC,1724456330
387,bhisho,-32.8472,27.4422,21.629999999999995,20,94,4.68,ZA,1724456331
388,santa barbara,34.7333,-120.0343,22.910000000000025,43,0,7.2,US,1724456080
389,meraux,29.933,-89.9498,31.99000000000001,61,0,5.66,US,1724456333
390,barra de santo antonio,-9.4047,-35.5072,24.04000000000002,80,56,5.96,BR,1724456335
391,santa marta de ortigueira,43.6833,-7.85,19.03000000000003,98,5,4.8,ES,1724456336
392,kosh-agach,50.0,88.6667,10.710000000000036,54,74,0.69,RU,1724456337
393,taitung city,22.7583,121.1444,28.150000000000034,83,20,1.54,TW,1724456339
394,jiagedaqi,50.4167,124.1167,19.670000000000016,62,46,2.96,CN,1724456340
395,al 'alamayn,50.4167,124.1167,19.670000000000016,62,46,2.96,CN,1724456340
396,treinta y tres,-33.2333,-54.3833,5.170000000000016,85,91,3.19,UY,1724456343
397,murzuq,25.9155,13.9184,32.06,37,0,6.36,LY,1724456344
398,antsiranana,-12.2787,49.2917,22.390000000000043,73,3,4.05,MG,1724456346
399,kerema,-7.9631,145.7785,27.05000000000001,80,79,2.02,PG,1724456347
400,luis correia,-2.8792,-41.6669,26.610000000000014,63,93,8.21,BR,1724456348
401,barroquinha,-3.0189,-41.1361,26.260000000000048,52,84,4.55,BR,1724456350
402,kebili,33.7044,8.969,26.970000000000027,53,4,4.68,TN,1724456351
403,port sudan,19.6175,37.2164,31.83000000000004,54,49,5.1,SD,1724456352
404,impfondo,1.6381,18.0667,22.629999999999995,92,89,1.39,CG,1724456354
405,new norfolk,-42.7826,147.0587,11.07000000000005,99,100,0.32,AU,1724456355
406,al ghayzah,16.2079,52.176,23.890000000000043,91,64,3.36,YE,1724456356
407,sampit,-2.5333,112.95,24.82000000000005,89,66,1.09,ID,1724456357
408,sorong,-0.8833,131.25,26.680000000000007,85,86,4.02,ID,1724456359
409,whakatane,-37.9585,176.9854,16.400000000000034,95,100,2.24,NZ,1724456360
410,puerto colombia,10.9878,-74.9547,28.05000000000001,82,94,3.18,CO,1724456361
411,hihifo,10.9878,-74.9547,28.05000000000001,82,94,3.18,CO,1724456361
412,posto fiscal rolim de moura,-13.0833,-62.2667,29.640000000000043,30,2,0.77,BR,1724456364
413,livingston,55.9029,-3.5226,10.150000000000034,87,0,2.57,GB,1724456365
414,todos santos,23.45,-110.2167,29.689999999999998,76,42,0.81,MX,1724456367
415,raja,8.4596,25.678,20.350000000000023,98,97,1.99,SS,1724456368
416,shakhovskaya,56.0283,35.5097,11.860000000000014,75,28,1.53,RU,1724456369
417,dunbar,38.3606,-81.7374,24.450000000000045,55,0,1.3,US,1724456370
418,tchintabaraden,15.8969,5.7985,29.560000000000002,50,77,4.59,NE,1724456372
419,burang,30.25,81.1667,7.689999999999998,91,99,2.11,CN,1724456373
420,tionk essil,12.7856,-16.5217,26.120000000000005,92,55,2.45,SN,1724456374
421,laojunmiao,39.8333,97.7333,20.870000000000005,30,100,3.62,CN,1724456376
422,saldanha,-33.0117,17.9442,14.03000000000003,85,75,8.57,ZA,1724456377
423,beau vallon,-20.4189,57.6953,20.129999999999995,83,20,1.54,MU,1724456378
424,minas de marcona,-15.2119,-75.1103,9.410000000000025,92,95,5.31,PE,1724456379
425,bay roberts,47.5999,-53.2648,17.30000000000001,90,100,2.35,CA,1724456081
426,aykol,38.1751,77.2132,20.600000000000023,49,2,1.9,CN,1724456382
427,sabang,5.8933,95.3214,27.650000000000034,75,100,7.09,ID,1724456383
428,bealanana,-14.55,48.7333,12.990000000000009,98,76,1.39,MG,1724456385
429,owase,34.0667,136.2,27.49000000000001,79,100,0.59,JP,1724456386
430,tual,-5.6667,132.75,26.060000000000002,89,100,8.81,ID,1724456387
431,rongelap,11.1635,166.8941,28.120000000000005,82,99,9.04,MH,1724456389
432,brisas barra de suchiate,14.55,-92.2167,28.590000000000032,75,51,3.6,MX,1724456390
433,al kharijah,25.4514,30.5464,31.83000000000004,35,3,3.7,EG,1724456391
434,magadan,59.5667,150.8,15.700000000000045,56,99,4.96,RU,1724456392
435,alice springs,-23.7,133.8833,26.75,32,2,7.2,AU,1724456394
436,sant'antioco,39.0664,8.4522,22.480000000000018,65,65,1.48,IT,1724456341
437,amga,60.8953,131.9608,19.220000000000027,64,39,1.18,RU,1724456396
438,port macquarie,-31.4333,152.9167,16.710000000000036,84,55,0.89,AU,1724456398
439,kuusamo,65.9667,29.1833,15.020000000000039,88,0,5.14,FI,1724456399
440,don sak,9.3168,99.6918,26.510000000000048,82,100,1.61,TH,1724456400
441,malagueno,-31.4647,-64.3584,9.330000000000041,54,58,0.84,AR,1724456402
442,antalaha,-14.9003,50.2788,19.220000000000027,89,76,3.16,MG,1724456403
443,harlingen,26.1908,-97.6961,35.06,35,0,7.2,US,1724455863
444,samut sakhon,13.5833,100.3,26.689999999999998,85,92,2.13,TH,1724456405
445,kitimat,54.0529,-128.6526,21.49000000000001,52,100,3.13,CA,1724456199
446,flin flon,54.7682,-101.865,21.910000000000025,53,20,2.57,CA,1724456408
447,carlsbad,33.1581,-117.3506,28.30000000000001,65,0,5.14,US,1724456164
448,san jose,37.338,-121.8879,23.33000000000004,53,100,6.17,US,1724456013
449,reggane,26.7158,0.1714,36.33000000000004,14,0,8.88,DZ,1724456412
450,buka,40.8108,69.1986,19.57000000000005,33,68,2.08,UZ,1724456413
451,suva,-18.1416,178.4415,24.710000000000036,83,75,9.26,FJ,1724456415
452,san patricio,28.017,-97.5169,32.97000000000003,55,98,6.63,US,1724456416
453,kruisfontein,-34.0033,24.7314,19.470000000000027,16,52,3.76,ZA,1724456417
454,dandeli,15.2667,74.6167,22.760000000000048,95,100,2.87,IN,1724456419
455,pathein,16.7833,94.7333,25.170000000000016,93,100,1.68,MM,1724456420
456,masterton,-40.9597,175.6575,14.25,72,99,3.92,NZ,1724456421
457,hilo,19.7297,-155.09,28.30000000000001,98,100,5.66,US,1724456423
458,sassnitz,54.5167,13.65,16.610000000000014,74,100,6.43,DE,1724456424
459,guiria,54.5167,13.65,16.610000000000014,74,100,6.43,DE,1724456424
460,sa'dah,16.9402,43.7639,19.879999999999995,75,86,1.06,YE,1724456427
461,mubende,0.5606,31.39,17.310000000000002,83,58,0.54,UG,1724456428
462,lompoc,34.6391,-120.4579,21.960000000000036,61,0,8.23,US,1724456429
463,aken,50.7766,6.0834,20.420000000000016,87,96,4.18,DE,1724456284
464,skelleftea,64.7507,20.9528,17.220000000000027,100,100,5.66,SE,1724456432
465,bom jesus,-9.0744,-44.3586,23.25,36,3,1.57,BR,1724456433
466,bismarck,46.8083,-100.7837,29.25,50,0,8.75,US,1724456221
467,pasargad,46.8083,-100.7837,29.25,50,0,8.75,US,1724456221
468,jeddah,21.5169,39.2192,33.920000000000016,62,75,6.17,SA,1724456437
469,ouddorp,51.8117,3.9347,17.210000000000036,70,35,9.78,NL,1724456438
470,kataragama,51.8117,3.9347,17.210000000000036,70,35,9.78,NL,1724456438
471,puerto escondido,15.85,-97.0667,30.460000000000036,94,40,2.57,MX,1724456441
472,mount isa,-20.7333,139.5,24.870000000000005,33,63,2.57,AU,1724456442
473,hovd,48.0056,91.6419,18.220000000000027,29,100,1.19,MN,1724456443
474,enoch,37.7733,-113.0244,29.140000000000043,21,0,14.92,US,1724456445
475,torghay,49.6339,63.4981,13.620000000000005,87,27,4.53,KZ,1724456446
476,nagqu,31.5,92.0,2.930000000000007,85,100,1.75,CN,1724456447
477,paita,-5.0892,-81.1144,18.02000000000004,82,15,7.65,PE,1724456449
478,sawakin,19.1059,37.3321,29.360000000000014,63,100,2.79,SD,1724456450
479,vegreville,53.5001,-112.0518,27.30000000000001,36,44,5.66,CA,1724456451
480,gandai,21.6667,81.1,23.980000000000018,95,99,1.67,IN,1724456452
481,quepos,9.4236,-84.1652,26.110000000000014,85,96,0.87,CR,1724456454
482,ulaangom,49.9811,92.0667,17.010000000000048,48,78,1.27,MN,1724456455
483,howard springs,-12.497,131.047,28.260000000000048,84,3,3.95,AU,1724456456
484,ust'-barguzin,53.45,108.9833,12.830000000000041,93,98,3.45,RU,1724456458
485,east ballina,-28.8667,153.5833,19.660000000000025,68,2,1.87,AU,1724456459
486,neryungri,56.6709,124.6491,16.25,65,100,2.11,RU,1724456460
487,lib,8.3122,167.3766,28.920000000000016,76,94,4.92,MH,1724456461
488,lesnoy,57.6198,63.0784,8.310000000000002,89,6,3.97,RU,1724456463
489,sassandra,4.95,-6.0833,23.400000000000034,90,99,3.65,CI,1724456464
490,molepolole,-24.4066,25.4951,12.580000000000041,62,0,4.48,BW,1724456465
491,port douglas,-16.4833,145.4667,23.49000000000001,81,100,5.15,AU,1724456466
492,buchanan,5.8808,-10.0467,24.33000000000004,93,92,4.23,LR,1724456468
493,tezpur,26.6333,92.8,25.700000000000045,96,96,1.94,IN,1724456469
494,klyuchi,52.2667,79.1667,15.360000000000014,84,1,3.36,RU,1724456471
495,belle fourche,44.6714,-103.8522,29.730000000000018,17,58,5.26,US,1724456472
496,phalaborwa,-23.943,31.1411,13.360000000000014,78,0,1.61,ZA,1724456473
497,egersund,58.4513,5.9997,12.810000000000002,79,45,4.56,NO,1724456474
498,polyarnyy,69.1989,33.4478,15.100000000000023,91,23,4.29,RU,1724456476
499,cherdyn',60.403,56.4787,8.410000000000025,85,90,1.37,RU,1724456477
500,rio grande,-32.035,-52.0986,10.07000000000005,82,88,4.53,BR,1724456185
501,ourilandia do norte,-32.035,-52.0986,10.07000000000005,82,88,4.53,BR,1724456185
502,fort mcmurray,56.7268,-111.381,29.77000000000004,34,20,4.63,CA,1724456481
503,akdepe,42.0551,59.3788,22.52000000000004,33,4,4.6,TM,1724456483
504,zahedan,29.4963,60.8629,17.950000000000045,24,0,2.06,IR,1724456484
505,bardai,11.65,7.2333,19.74000000000001,96,98,3.54,NG,1724456485
506,nadi,-17.8,177.4167,28.0,54,40,4.63,FJ,1724456486
507,cherepovets,59.1333,37.9,12.79000000000002,90,59,2.2,RU,1724456488
508,ulanhot,46.0833,122.0833,21.29000000000002,88,100,3.24,CN,1724456489
509,piazza armerina,37.3859,14.3672,21.03000000000003,72,67,0.65,IT,1724456491
510,lensk,60.7253,114.9278,17.510000000000048,76,100,3.4,RU,1724456297
511,neelankarai,12.9455,80.2575,29.03000000000003,84,40,5.14,IN,1724456493
512,nikel,69.4128,30.222,17.150000000000034,88,70,2.61,RU,1724456494
513,kapuskasing,49.4169,-82.4331,21.0,64,100,5.14,CA,1724456496
514,brownsville,25.9018,-97.4975,32.97000000000003,60,20,5.66,US,1724456256
515,nueva gerona,21.8833,-82.8,30.220000000000027,67,51,5.02,CU,1724456499
516,puerto leguizamo,-0.1934,-74.7819,25.79000000000002,80,82,0.4,CO,1724456500
517,urangan,-25.3,152.9,21.210000000000036,73,2,3.29,AU,1724456501
518,guerrero negro,27.9769,-114.0611,23.200000000000045,66,23,7.89,MX,1724456502
519,behshahr,36.6923,53.5526,25.980000000000018,55,20,3.11,IR,1724456366
520,sormiou,36.6923,53.5526,25.980000000000018,55,20,3.11,IR,1724456366
521,floro,61.5996,5.0328,11.980000000000018,87,75,8.23,NO,1724456506
522,fortuna,40.5982,-124.1573,16.510000000000048,80,75,4.63,US,1724456508
523,astorga,-23.2325,-51.6656,18.430000000000007,64,85,4.0,BR,1724456295
524,alotau,-10.3069,150.4462,26.150000000000034,86,97,2.74,PG,1724456510
525,greenville,35.6132,-77.3725,22.950000000000045,64,0,1.54,US,1724456312
526,nova vicosa,-17.8908,-39.3725,23.710000000000036,77,1,5.35,BR,1724456506
527,haiku-pauwela,20.9219,-156.3051,29.590000000000032,73,40,11.83,US,1724456514
528,ust'-ilimsk,58.0006,102.6619,13.470000000000027,88,6,1.91,RU,1724456515
529,machico,32.7,-16.7667,25.350000000000023,61,20,5.14,PT,1724456516
530,green river,41.5286,-109.4662,19.33000000000004,58,57,10.91,US,1724456449
531,fuglafjordur,62.244,-6.814,8.300000000000011,87,9,4.33,FO,1724456519
532,faya-largeau,17.9257,19.1043,35.55000000000001,38,88,4.96,TD,1724456520
533,checker hall,17.9257,19.1043,35.55000000000001,38,88,4.96,TD,1724456520
534,ntungamo,-0.8833,29.65,19.82000000000005,83,85,1.01,UG,1724456523
535,viedma,-40.8135,-62.9967,5.010000000000048,85,36,2.58,AR,1724456489
536,namibe,-15.1961,12.1522,18.180000000000007,85,9,3.21,AO,1724456526
537,doba,8.65,16.85,22.450000000000045,97,100,0.6,TD,1724456527
538,rawson,-43.3002,-65.1023,3.160000000000025,93,0,2.06,AR,1724455978
539,fiambala,-27.6871,-67.6149,3.6000000000000227,59,0,6.6,AR,1724456345
540,east aurora,42.7678,-78.6134,18.870000000000005,77,85,1.12,US,1724456262
541,mugia,43.1041,-9.2179,19.950000000000045,90,74,6.22,ES,1724456532
542,leava,-14.3,-178.1667,26.420000000000016,76,53,10.29,WF,1724456533
543,kiunga,-6.1219,141.2906,25.79000000000002,91,99,1.9,PG,1724456535
544,kailua-kona,19.6406,-155.9956,28.32000000000005,81,12,1.34,US,1724456536
545,bubaque,11.2833,-15.8333,27.05000000000001,86,92,6.06,GW,1724456537
546,radovljica,46.3444,14.1744,17.57000000000005,96,0,1.43,SI,1724456539
547,assab,13.0092,42.7394,27.700000000000045,83,98,9.46,ER,1724456540
548,stanthorpe,-28.6667,151.95,17.460000000000036,68,0,2.12,AU,1724456541
549,surkhpur,32.7161,74.4461,25.82000000000005,79,40,1.83,IN,1724456543
550,truth or consequences,33.1284,-107.2528,35.129999999999995,20,40,7.2,US,1724456544
551,mashava,-20.0367,30.4823,10.950000000000045,78,0,1.97,ZW,1724456545
552,neiafu,-18.65,-173.9833,25.379999999999995,73,40,5.66,TO,1724456546
553,erenhot,43.6475,111.9767,21.900000000000034,52,15,3.68,CN,1724456548
554,sayaxche,16.5167,-90.1667,27.510000000000048,74,69,1.7,GT,1724456549
555,oamaru,-45.0784,170.9801,13.620000000000005,55,21,1.11,NZ,1724456550
556,riachao do jacuipe,-11.8069,-39.3856,21.310000000000002,75,25,3.87,BR,1724455994
557,turpan,42.9333,89.1667,34.02000000000004,23,90,3.37,CN,1724456553
558,yulinshi,38.2906,109.7494,26.629999999999995,47,51,3.2,CN,1724456554
559,pingliang,35.5392,106.6861,22.350000000000023,86,15,2.58,CN,1724456555
560,samana,19.2056,-69.3369,25.83000000000004,88,100,3.31,DO,1724456557
561,ciudad bolivar,8.1222,-63.5497,26.560000000000002,78,76,4.87,VE,1724456558
562,mont-dore,-22.2833,166.5833,25.0,99,0,4.73,NC,1724456559
563,hounde,11.5,-3.5167,21.870000000000005,94,100,1.45,BF,1724456561
564,tortoli,39.9256,9.6572,26.100000000000023,81,0,1.54,IT,1724456562
565,bontang,0.1333,117.5,24.090000000000032,90,100,2.81,ID,1724456563
566,flying fish cove,-10.4217,105.6791,24.82000000000005,88,100,5.14,CX,1724456564
567,nikolayevsk-on-amure,53.1406,140.73,12.160000000000025,95,100,4.17,RU,1724456566
568,uruzgan,32.8333,66.0,19.810000000000002,13,0,1.41,AF,1724456567
569,paciran,-6.8767,112.3761,25.03000000000003,73,19,3.86,ID,1724456568
570,revda,56.801,59.9303,8.770000000000039,93,100,1.42,RU,1724456570
571,arkhangel'sk,64.5401,40.5433,16.060000000000002,82,0,2.0,RU,1724456571
572,alt-sanitz,53.8136,13.5879,17.760000000000048,73,100,3.1,DE,1724456572
573,mariental,-24.6333,17.9667,16.850000000000023,18,0,4.29,NA,1724456574
574,sao miguel do tapuio,-5.5036,-41.3233,25.30000000000001,44,46,3.24,BR,1724456575
575,polygyros,40.3744,23.4383,27.03000000000003,48,0,3.08,GR,1724456576
576,kangding,30.0513,101.9603,17.54000000000002,87,80,0.94,CN,1724456577
577,lander,42.833,-108.7307,30.450000000000045,19,0,10.8,US,1724456579
578,talisayan,6.9872,121.9272,25.950000000000045,89,100,2.57,PH,1724456580
579,arkhara,49.4212,130.0842,19.210000000000036,65,12,1.5,RU,1724456581
580,lashio,22.9333,97.75,19.810000000000002,100,100,0.18,MM,1724456583
581,manggar,-2.8833,108.2667,27.629999999999995,75,51,6.23,ID,1724456584
582,i-n-salah,27.1935,2.4607,33.82000000000005,18,0,8.99,DZ,1724456585
583,manokwari,-0.8667,134.0833,26.860000000000014,76,100,1.2,ID,1724456587
584,saint albans,51.75,-0.3333,16.28000000000003,79,100,4.12,GB,1724456588
585,ingeniero jacobacci,-41.3427,-69.5448,2.2000000000000455,64,67,3.49,AR,1724456589
586,crixas,-14.5489,-49.9692,27.49000000000001,22,3,1.08,BR,1724456591
587,bamboo flat,11.7,92.7167,27.05000000000001,83,40,0.51,IN,1724456592
588,barahan,13.0121,120.762,27.77000000000004,79,100,2.19,PH,1724456593
589,baruun-urt,46.6806,113.2792,16.970000000000027,70,4,3.83,MN,1724456594
590,ketchikan,55.3422,-131.6461,15.430000000000007,78,100,1.54,US,1724456596
591,herat,34.5,62.0,20.99000000000001,21,0,3.32,AF,1724456597
592,sinabang,2.4803,96.3801,24.260000000000048,93,100,2.23,ID,1724456598
593,cruzeiro do oeste,-23.785,-53.0733,14.57000000000005,89,99,2.51,BR,1724456003
594,teknaf,20.8624,92.3058,24.82000000000005,96,100,3.25,BD,1724456601
595,gisborne,-38.6533,178.0042,13.930000000000007,81,100,2.7,NZ,1724456602
596,brikama,13.2714,-16.6494,28.02000000000004,89,40,0.0,GM,1724456603
597,luena,-11.7833,19.9167,13.080000000000041,26,0,1.89,AO,1724456605
598,guelendeng,10.9176,15.5501,25.29000000000002,80,91,1.95,TD,1724456606
599,warrnambool,-38.3833,142.4833,15.460000000000036,75,17,6.54,AU,1724456607
600,hasaki,35.7333,140.8333,27.83000000000004,79,100,6.88,JP,1724456609
601,mata-utu,-13.2816,-176.1745,26.670000000000016,72,93,9.57,WF,1724456610
602,mmabatho,-25.85,25.6333,9.980000000000018,66,0,4.12,ZA,1724456611
603,marsabit,2.3284,37.9899,17.74000000000001,66,98,9.91,KE,1724456612
604,isle of lewis,2.3284,37.9899,17.74000000000001,66,98,9.91,KE,1724456612
605,sawa sawa,-4.4717,39.4846,23.80000000000001,77,31,6.39,KE,1724456615
606,tongren,27.7172,109.1853,26.960000000000036,83,0,1.36,CN,1724456616
607,nalut,30.3333,10.85,26.129999999999995,58,0,7.02,LY,1724456618
608,sferracavallo,42.726,12.0956,24.650000000000034,90,0,0.72,IT,1724456619
609,puerto armuelles,8.2833,-82.8667,26.720000000000027,75,16,0.45,PA,1724456620
610,al 'aziziyah,32.9058,45.0616,36.400000000000034,13,0,4.95,IQ,1724456622
611,ain kercha,35.9247,6.6953,24.08000000000004,41,94,1.46,DZ,1724456623
612,ambovombe,-25.1667,46.0833,15.450000000000045,65,32,5.42,MG,1724456624
613,hammerfest,70.6634,23.6821,18.25,59,75,4.12,NO,1724456625
614,dalcahue,-42.3628,-73.7022,5.110000000000014,87,75,2.06,CL,1724456627
615,ryotsu-minato,38.0833,138.4333,29.160000000000025,72,38,1.61,JP,1724456628
616,boa vista,2.8208,-60.672,28.99000000000001,65,0,2.57,BR,1724456162
617,keflavik,64.0049,-22.5624,8.240000000000009,76,75,11.32,IS,1724456630
