City_ID,City,Lat,Lng,Max Temp,Humidity,Cloudiness,Wind Speed,Country,Date
0,port-aux-francais,-49.35,70.2167,274.25,63,98,14.17,TF,1724371639
1,klyuchi,52.2667,79.1667,291.36,62,89,3.04,RU,1724371641
2,remire-montjoly,4.9167,-52.2667,300.17,89,0,1.54,GF,1724371642
3,blackmans bay,-43.0167,147.3167,287.33,61,46,4.41,AU,1724371644
4,guichon,-32.35,-57.2,281.88,89,100,4.53,UY,1724371645
5,la ronge,55.1001,-105.2842,289.29,63,100,3.09,CA,1724371122
6,bredasdorp,-34.5322,20.0403,280.57,81,34,2.36,ZA,1724371648
7,am djarass,-34.5322,20.0403,280.57,81,34,2.36,ZA,1724371648
8,upata,8.0086,-62.3989,297.76,76,92,2.09,VE,1724371650
9,ust-nera,64.5667,143.2,290.67,44,68,1.94,RU,1724371651
10,torghay,49.6339,63.4981,288.51,70,2,5.19,KZ,1724371653
11,dudinka,69.4058,86.1778,281.06,93,25,3.15,RU,1724371406
12,bethel,41.3712,-73.414,292.05,82,0,2.06,US,1724371648
13,adamstown,-25.066,-130.1015,291.36,65,74,6.29,PN,1724371657
14,kapuskasing,49.4169,-82.4331,293.37,68,34,1.97,CA,1724371658
15,ke-macina,13.9623,-5.3572,301.09,71,99,3.79,ML,1724371659
16,margaret river,-33.95,115.0667,287.38,78,91,6.83,AU,1724371661
17,jamestown,42.097,-79.2353,290.95,67,0,2.06,US,1724371662
18,hawaiian paradise park,19.5933,-154.9731,302.44,70,63,1.34,US,1724371663
19,umm kaddadah,13.6017,26.6876,299.9,64,93,7.56,SD,1724371665
20,hadibu,12.65,54.0333,298.54,80,93,6.66,YE,1724371666
21,ilulissat,69.2167,-51.1,278.16,81,100,2.57,GL,1724371667
22,sulphur,30.2366,-93.3774,307.14,50,0,2.57,US,1724371470
23,port saint john's,-31.6229,29.5448,288.45,63,100,3.53,ZA,1724371670
24,puerto natales,-51.7236,-72.4875,274.66,90,72,1.85,CL,1724371671
25,qarazhal,48.0078,70.7903,291.64,56,65,2.78,KZ,1724371672
26,kodiak,57.79,-152.4072,287.88,55,0,4.12,US,1724371674
27,bilibino,68.0546,166.4372,276.13,99,100,2.01,RU,1724371675
28,eureka,40.8021,-124.1637,290.81,91,99,0.45,US,1724371423
29,broken hill,-31.95,141.4333,293.21,35,77,11.21,AU,1724371677
30,st. john's,47.5649,-52.7093,286.92,87,75,2.06,CA,1724370799
31,arraial do cabo,-22.9661,-42.0278,296.04,80,0,13.82,BR,1724371680
32,nsanje,-16.92,35.262,292.71,88,3,1.54,MW,1724371682
33,yellowknife,62.456,-114.3525,288.44,77,75,8.75,CA,1724371531
34,olonkinbyen,70.9221,-8.7187,278.87,97,100,8.71,SJ,1724371684
35,waitangi,-43.9535,-176.5597,285.83,84,28,5.36,NZ,1724371686
36,udachny,66.4167,112.4,288.1,70,74,1.21,RU,1724371553
37,talnakh,69.4865,88.3972,282.24,91,90,2.1,RU,1724371688
38,sur,22.5667,59.5289,301.4,73,3,2.63,OM,1724371690
39,grytviken,-54.2811,-36.5092,271.56,90,48,3.17,GS,1724371691
40,boa vista,2.8197,-60.6733,302.14,65,40,3.09,BR,1724371521
41,stanley,54.868,-1.6985,284.97,93,75,2.06,GB,1724371693
42,ushuaia,-54.8,-68.3,279.96,70,20,8.75,AR,1724371399
43,hakui,36.8833,136.7833,304.01,64,68,3.22,JP,1724371696
44,sao felix do xingu,-6.6447,-51.995,302.86,33,43,0.46,BR,1724371499
45,latina,41.45,13.1,299.08,84,5,0.89,IT,1724371699
46,kiunga,-6.1219,141.2906,299.01,92,100,1.41,PG,1724371700
47,avarua,-21.2078,-159.775,298.18,73,75,4.63,CK,1724371701
48,papatowai,-46.5619,169.4708,285.89,74,100,0.44,NZ,1724371702
49,robore,-18.3333,-59.75,300.54,33,28,2.12,BO,1724371704
50,puerto ayora,-0.7393,-90.3518,292.9,90,40,1.79,EC,1724371705
51,qaqortoq,60.7167,-46.0333,280.11,70,86,2.11,GL,1724371706
52,hithadhoo,-0.6,73.0833,301.2,73,86,4.02,MV,1724371708
53,scarborough,54.2797,-0.4044,285.25,89,100,1.79,GB,1724371650
54,broome,42.2506,-75.833,289.86,71,8,1.2,US,1724371710
55,sochi,43.6,39.7303,298.2,70,32,3.69,RU,1724371598
56,ulcinj,41.9294,19.2244,299.82,55,50,2.16,ME,1724371713
57,yuzhno-kurilsk,44.0306,145.8556,293.01,98,100,8.29,RU,1724371714
58,la'ie,21.6477,-157.9253,303.18,71,7,3.58,US,1724371715
59,sitka,57.0531,-135.33,285.0,88,100,1.92,US,1724371717
60,montevideo,-34.8335,-56.1674,282.16,93,100,6.69,UY,1724371461
61,linares,-35.85,-71.6,279.42,87,100,1.74,CL,1724371719
62,invercargill,-46.4,168.35,286.49,77,100,1.34,NZ,1724371721
63,taiohae,-46.4,168.35,286.49,77,100,1.34,NZ,1724371721
64,albany,42.6001,-73.9662,293.11,70,37,1.79,US,1724371596
65,manismata,-2.4667,111.0333,296.46,96,99,0.8,ID,1724371725
66,saipan,15.1355,145.701,304.54,70,40,5.14,MP,1724371462
67,tahoua,14.8888,5.2692,300.35,66,61,5.14,NE,1724371727
68,pilar,-9.5972,-35.9567,294.33,91,14,3.01,BR,1724371728
69,longyearbyen,78.2186,15.6401,284.06,71,75,5.14,SJ,1724371466
70,east london,-33.0153,27.9116,286.86,61,94,5.31,ZA,1724371531
71,luderitz,-26.6481,15.1594,287.45,71,0,2.13,NA,1724371732
72,sinop,41.7711,34.8709,291.13,89,1,1.43,TR,1724371734
73,enshi,30.3,109.4833,300.62,82,0,0.25,CN,1724371735
74,tazacorte,28.629,-17.9293,295.69,73,20,7.72,ES,1724371736
75,poxoreo,-15.8372,-54.3892,299.34,25,1,1.63,BR,1724371537
76,whitehorse,60.7161,-135.0538,283.6,92,100,0.45,CA,1724371739
77,cochirleanca,45.2167,27.0333,295.96,53,58,5.63,RO,1724371740
78,port mathurin,-19.6833,63.4167,295.48,73,96,9.74,MU,1724371742
79,comodoro rivadavia,-45.8667,-67.5,278.07,87,0,1.03,AR,1724371537
80,san patricio,28.017,-97.5169,306.12,55,5,6.94,US,1724371744
81,chicxulub puerto,28.017,-97.5169,306.12,55,5,6.94,US,1724371744
82,tiksi,71.6872,128.8694,277.1,90,77,3.01,RU,1724371747
83,talara,-4.5772,-81.2719,293.57,83,0,6.69,PE,1724371540
84,al mijlad,11.0333,27.7333,296.57,84,87,2.82,SD,1724371750
85,bengkulu,-3.8004,102.2655,297.25,94,42,2.84,ID,1724371751
86,la passe,45.5549,-0.8967,291.59,82,27,3.63,FR,1724371752
87,vadso,70.0744,29.7487,290.24,72,100,3.09,NO,1724371754
88,polyarnyy,69.1989,33.4478,286.03,71,66,5.95,RU,1724371755
89,severo-yeniseyskiy,60.3725,93.0408,284.15,96,76,2.3,RU,1724371756
90,yorkton,51.2167,-102.4677,301.37,23,8,5.33,CA,1724371758
91,hilo,19.7299,-155.0907,302.56,86,73,2.68,US,1724371553
92,amga,60.8953,131.9608,290.67,71,98,0.64,RU,1724371760
93,cannonvale,-20.2833,148.7,294.81,66,0,4.61,AU,1724371762
94,buala,-8.145,159.5921,301.27,79,97,6.95,SB,1724371763
95,puerto barrios,15.7167,-88.6,298.39,94,76,1.86,GT,1724371764
96,brzeg,50.8608,17.4674,288.73,61,41,3.14,PL,1724371766
97,kenai,60.5544,-151.2583,289.34,68,0,9.26,US,1724371767
98,cruzeiro do sul,-29.5128,-51.9853,290.66,89,100,1.57,BR,1724371691
99,al ghayzah,16.2079,52.176,297.18,90,24,2.77,YE,1724371770
100,tionk essil,12.7856,-16.5217,298.6,92,81,2.95,SN,1724371772
101,fale old settlement,-9.3852,-171.2468,300.42,79,31,11.06,TK,1724371773
102,punta arenas,-53.15,-70.9167,279.21,81,40,10.29,CL,1724371635
103,haiku-pauwela,20.9219,-156.3051,302.74,63,40,9.77,US,1724371776
104,ulanhot,46.0833,122.0833,294.14,77,29,2.12,CN,1724371777
105,tazovsky,67.4667,78.7,280.9,95,80,2.81,RU,1724371778
106,wailua homesteads,22.0669,-159.378,301.59,69,75,6.17,US,1724371779
107,arkhangel'sk,64.5401,40.5433,286.21,88,0,3.0,RU,1724371781
108,point pedro,9.8167,80.2333,301.06,80,100,7.79,LK,1724371782
109,el alto,-4.2714,-81.2147,290.7,83,7,8.81,PE,1724371783
110,lata,40.1629,-8.3327,285.51,98,10,1.29,PT,1724371785
111,camana,-16.6228,-72.7111,288.36,92,100,6.1,PE,1724371786
112,enewetak,11.3474,162.3373,302.0,75,47,6.75,MH,1724371787
113,urengoy,65.9667,78.3667,280.55,94,14,2.71,RU,1724371788
114,mejit,10.2753,170.8646,301.23,80,100,6.85,MH,1724371790
115,dhamtari,20.7072,81.5497,296.46,97,100,2.49,IN,1724371791
116,west island,-12.1568,96.8225,299.14,83,20,5.66,CC,1724371520
117,santa cruz,-17.8,-63.1667,296.85,53,75,7.72,BO,1724371745
118,georgetown,5.4112,100.3354,298.12,93,20,2.24,MY,1724371330
119,yuktae-dong,40.0247,128.1597,299.76,81,0,5.49,KP,1724371796
120,holualoa,19.6228,-155.9522,300.06,82,75,5.66,US,1724371798
121,iqaluit,63.7506,-68.5145,284.0,87,75,1.54,CA,1724371766
122,lichtenburg,-26.152,26.1597,283.42,24,0,4.27,ZA,1724371800
123,fuvahmulah,-26.152,26.1597,283.42,24,0,4.27,ZA,1724371800
124,uryupinsk,50.8047,42.0138,291.76,44,25,3.4,RU,1724371803
125,ribeira grande,38.5167,-28.7,298.58,88,75,5.14,PT,1724371804
126,tromso,69.6496,18.957,286.16,88,36,2.06,NO,1724371806
127,aasiaat,68.7098,-52.8699,275.32,83,100,6.29,GL,1724371807
128,ketchikan,55.3422,-131.6461,290.01,63,100,0.98,US,1724371808
129,barano d'ischia,40.718,13.9309,299.37,87,0,1.34,IT,1724371810
130,owando,-0.4819,15.8999,297.12,72,97,0.76,CG,1724371811
131,edinburgh of the seven seas,-37.0676,-12.3116,285.13,70,34,12.85,SH,1724371812
132,winder,33.9926,-83.7202,298.64,59,0,0.0,US,1724371814
133,iskateley,67.6803,53.1512,283.6,82,100,3.39,RU,1724371815
134,zaozersk,69.4005,32.4476,286.28,70,53,3.63,RU,1724371817
135,badger,64.8,-147.5333,283.29,91,100,6.69,US,1724371818
136,felipe carrillo puerto,19.5833,-88.05,301.48,69,52,2.66,MX,1724371819
137,port lincoln,-34.7333,135.8667,292.19,52,93,9.81,AU,1724371820
138,sanming,26.2486,117.6186,299.29,91,37,0.4,CN,1724371822
139,korla,41.7597,86.1469,300.82,29,99,5.29,CN,1724371823
140,silsbee,30.3491,-94.178,305.84,78,51,3.76,US,1724371824
141,yayva,59.3303,57.2641,281.98,98,8,2.21,RU,1724371826
142,manokwari,-0.8667,134.0833,300.51,78,100,6.98,ID,1724371827
143,kununurra,-15.7667,128.7333,300.14,61,49,1.54,AU,1724371828
144,santana,-0.0583,-51.1817,302.25,84,40,6.17,BR,1724371830
145,heunghae,36.1125,129.3522,302.33,63,13,4.15,KR,1724371831
146,puerto san carlos,36.1125,129.3522,302.33,63,13,4.15,KR,1724371831
147,nar'yan-mar,67.6713,53.087,283.65,82,100,3.42,RU,1724371834
148,ola,59.5833,151.2833,286.77,61,0,1.74,RU,1724371835
149,eyl,7.9803,49.8164,299.66,66,99,8.77,SO,1724371836
150,mormugao,15.4,73.8,300.32,86,99,6.81,IN,1724371838
151,folkestone,51.0833,1.1833,292.55,92,100,9.39,GB,1724371839
152,kuroiso,36.9667,140.05,297.32,98,100,2.42,JP,1724371840
153,aldinga beach,-35.2793,138.4604,295.19,51,100,8.76,AU,1724371842
154,cabo san lucas,22.8909,-109.9124,307.32,49,0,2.06,MX,1724371603
155,constantia,44.1833,28.65,297.53,62,0,5.73,RO,1724371844
156,elliot,-31.3333,27.85,276.51,73,53,1.46,ZA,1724371846
157,kavaratti,10.5669,72.642,299.46,88,55,5.21,IN,1724371847
158,alice springs,-23.7,133.8833,299.9,22,0,6.69,AU,1724371848
159,susuman,62.7833,148.1667,287.78,47,9,1.43,RU,1724371850
160,ciudad melchor muzquiz,27.8833,-101.5167,311.12,22,12,9.29,MX,1724371851
161,college,64.8569,-147.8028,283.19,88,100,6.69,US,1724371852
162,yangor,64.8569,-147.8028,283.19,88,100,6.69,US,1724371852
163,chonchi,-42.6128,-73.8092,278.77,95,97,0.37,CL,1724371855
164,barka',-42.6128,-73.8092,278.77,95,97,0.37,CL,1724371855
165,weno,7.4515,151.8468,305.12,79,75,2.57,FM,1724371858
166,kavieng,-2.5744,150.7967,301.31,79,99,6.75,PG,1724371859
167,runaway bay,18.4596,-77.3357,301.22,84,13,1.88,JM,1724371861
168,wyomissing,40.3295,-75.9652,292.79,68,65,1.34,US,1724371862
169,toga village,40.3295,-75.9652,292.79,68,65,1.34,US,1724371862
170,sarangani,5.4033,125.4636,301.17,76,100,3.41,PH,1724371865
171,faya-largeau,17.9257,19.1043,306.94,43,19,4.24,TD,1724371866
172,tori-fatehpur,25.45,79.1333,299.16,89,100,2.66,IN,1724371867
173,el calafate,-50.3408,-72.2768,275.04,65,93,0.83,AR,1724371612
174,policka,49.7146,16.2654,289.12,65,41,2.83,CZ,1724371870
175,minas de marcona,-15.2119,-75.1103,283.23,90,99,7.99,PE,1724371871
176,south valley,35.0101,-106.6781,300.25,53,68,8.49,US,1724371873
177,choma,-16.8065,26.9531,286.98,38,0,2.32,ZM,1724371874
178,'ohonua,-16.8065,26.9531,286.98,38,0,2.32,ZM,1724371874
179,mount gambier,-37.8333,140.7667,283.47,94,100,3.65,AU,1724371877
180,meulaboh,4.1363,96.1285,296.84,93,100,3.09,ID,1724371878
181,tikhvin,59.6451,33.5294,288.04,91,12,3.06,RU,1724371879
182,choibalsan,48.0667,114.5,290.99,79,100,3.69,MN,1724371880
183,vila franca do campo,37.7167,-25.4333,297.38,84,0,2.9,PT,1724371882
184,isafjordur,66.0755,-23.124,276.05,90,100,9.91,IS,1724371883
185,paris,48.8534,2.3488,292.67,69,0,4.12,FR,1724371666
186,elwood,-37.8817,144.983,289.66,71,100,2.68,AU,1724371886
187,lihue,21.9789,-159.3672,301.92,63,75,6.17,US,1724371843
188,ciudad lazaro cardenas,17.9583,-102.2,302.04,75,95,3.26,MX,1724371754
189,bolintin vale,44.4489,25.7578,298.01,46,56,4.09,RO,1724371890
190,ray,23.6833,85.05,297.52,89,100,2.0,IN,1724371891
191,pumiao,22.75,108.4833,300.0,86,98,2.21,CN,1724371893
192,chinde,26.8212,87.7095,297.02,94,88,1.25,NP,1724371894
193,lompoc,34.6391,-120.4579,294.55,65,0,6.69,US,1724371896
194,basco,20.4487,121.9702,302.45,75,14,2.96,PH,1724371897
195,bumba,2.1833,22.4667,294.73,96,100,1.0,CD,1724371898
196,alofi,-19.0595,-169.9187,298.09,78,75,7.72,NU,1724371900
197,donaldsonville,30.101,-90.9929,305.38,53,54,3.18,US,1724371759
198,tual,-5.6667,132.75,298.67,89,100,7.9,ID,1724371902
199,callao,-12.0667,-77.15,289.66,82,100,5.14,PE,1724371904
200,nilgiri,21.4581,86.7669,299.31,88,100,2.94,IN,1724371905
201,jacksonville,30.3322,-81.6557,299.82,84,100,7.2,US,1724371632
202,takab,36.4009,47.1133,293.71,29,36,2.07,IR,1724371907
203,colonia,50.9333,6.95,292.57,64,0,3.6,DE,1724371909
204,saratamata,50.9333,6.95,292.57,64,0,3.6,DE,1724371909
205,brookings,44.3114,-96.7984,298.25,73,20,6.17,US,1724371648
206,hermanus,-34.4187,19.2345,284.15,55,24,4.52,ZA,1724371913
207,bandarbeyla,9.4942,50.8122,298.88,73,78,10.61,SO,1724371914
208,kerikeri,-35.2268,173.9474,291.43,70,80,5.36,NZ,1724371915
209,tommot,58.9564,126.2925,289.77,75,2,0.52,RU,1724371917
210,mount pearl,47.5241,-52.7838,286.49,89,24,0.45,CA,1724371656
211,ivdel',60.6911,60.4206,284.82,85,88,1.44,RU,1724371919
212,tanki leendert,60.6911,60.4206,284.82,85,88,1.44,RU,1724371921
213,fort bragg,35.139,-79.006,295.82,60,4,2.86,US,1724371923
214,katsuren-haebaru,26.3369,127.8719,304.36,82,20,2.57,JP,1724371924
215,nishinoomote,30.7333,131.0,302.46,89,75,2.57,JP,1724371925
216,ouesso,1.6136,16.0517,296.52,81,98,1.04,CG,1724371927
217,khemis miliana,36.261,2.2202,299.63,50,71,1.07,DZ,1724371928
218,mili,6.0815,171.735,301.36,73,58,1.81,MH,1724371929
219,kas,36.2018,29.6377,298.86,85,0,1.29,TR,1724371930
220,alenquer,-1.9417,-54.7383,301.3,48,52,2.07,BR,1724371932
221,klaksvik,62.2266,-6.589,283.07,81,33,11.41,FO,1724371933
222,port alfred,-33.5906,26.891,284.92,81,98,2.68,ZA,1724371934
223,praia da vitoria,38.7333,-27.0667,298.57,89,35,2.84,PT,1724371936
224,new norfolk,-42.7826,147.0587,287.99,80,93,4.66,AU,1724371937
225,espargos,-42.7826,147.0587,287.99,80,93,4.66,AU,1724371937
226,nemuro,43.3236,145.575,293.27,93,100,12.15,JP,1724371940
227,newman,37.3138,-121.0208,300.95,40,0,3.58,US,1724371941
228,north shore,-36.8,174.75,291.19,66,90,5.81,NZ,1724371942
229,bati,11.1833,40.0167,291.53,83,69,2.62,ET,1724371944
230,howard springs,-12.497,131.047,300.1,91,34,2.32,AU,1724371945
231,jindabyne,-36.4167,148.6333,285.14,57,97,0.45,AU,1724371946
232,manavalakurichi,8.1333,77.3,298.06,99,99,3.45,IN,1724371948
233,saldanha,-33.0117,17.9442,287.02,44,1,3.86,ZA,1724371949
234,hammerfest,70.6634,23.6821,290.4,82,64,4.12,NO,1724371950
235,lushun,38.8,121.2667,300.27,75,1,2.64,CN,1724371952
236,lebu,-37.6167,-73.65,280.65,84,100,2.44,CL,1724371953
237,burang,30.25,81.1667,281.87,83,99,2.05,CN,1724371845
238,tura,25.5198,90.2201,296.69,97,100,1.96,IN,1724371955
239,mae tha,18.4646,99.1403,295.44,99,100,0.32,TH,1724371957
240,gongzhuling,43.5008,124.8198,293.46,83,2,1.91,CN,1724371958
241,lingyuan,41.24,119.4011,295.33,79,72,0.48,CN,1724371960
242,pithapuram,17.1167,82.2667,299.14,88,98,1.75,IN,1724371961
243,cedeira,43.6797,-8.0209,294.25,86,99,5.7,ES,1724371962
244,kudahuvadhoo,2.6708,72.8944,300.49,78,92,2.74,MV,1724371963
245,tateyama,34.9833,139.8667,300.93,81,80,5.22,JP,1724371965
246,selkirk,50.1436,-96.8845,298.81,71,63,1.34,CA,1724371966
247,arzgir,45.3728,44.2206,296.4,47,52,3.04,RU,1724371967
248,cargados carajos,45.3728,44.2206,296.4,47,52,3.04,RU,1724371967
249,ceeldheer,3.8488,47.1806,297.35,82,100,7.31,SO,1724371970
250,augusto correa,-1.0217,-46.635,298.05,86,53,1.41,BR,1724371972
251,kitimat,54.0524,-128.6534,299.09,51,66,4.02,CA,1724371973
252,rongelap,11.1635,166.8941,301.58,77,97,5.71,MH,1724371974
253,kingston,17.997,-76.7936,298.8,93,58,0.82,JM,1724371833
254,vorgashor,67.5833,63.95,280.11,89,100,1.88,RU,1724371977
255,carnarvon,-24.8667,113.6333,294.36,62,75,5.37,AU,1724371978
256,hasaki,35.7333,140.8333,300.44,78,63,6.25,JP,1724371980
257,smithers,54.7804,-127.1743,298.57,32,39,2.28,CA,1724371981
258,northam,51.0333,-4.2167,287.93,95,100,12.12,GB,1724371982
259,ha,51.0333,-4.2167,287.93,95,100,12.12,GB,1724371982
260,dolinsk,47.35,142.8,292.33,99,100,0.77,RU,1724371985
261,wailea,19.8858,-155.123,300.15,87,100,3.09,US,1724371986
262,crane,31.3974,-102.3501,312.38,13,41,7.16,US,1724371987
263,happy valley-goose bay,53.3168,-60.3315,285.96,66,25,0.62,CA,1724371815
264,atafu village,-8.5421,-172.5159,300.66,77,29,8.74,TK,1724371990
265,piedmont,37.8244,-122.2316,296.12,71,75,7.72,US,1724371992
266,candido mota,-22.7464,-50.3869,298.54,17,0,3.12,BR,1724371338
267,hobbs,32.7026,-103.136,311.2,12,40,6.17,US,1724371591
268,arakli,40.9385,40.0584,300.2,89,88,1.34,TR,1724371996
269,murzuq,25.9155,13.9184,306.38,31,0,5.54,LY,1724371997
270,coahuayana de hidalgo,18.7,-103.6583,301.36,79,100,1.21,MX,1724371998
271,forster,-32.1667,152.5167,292.8,61,2,0.5,AU,1724371999
272,taroa,8.7058,171.2275,301.58,76,82,3.77,MH,1724372001
273,fortuna,40.5982,-124.1573,290.66,83,75,2.57,US,1724371854
274,howrah,22.5892,88.3103,300.15,94,100,0.0,IN,1724372003
275,hola,51.5377,23.1902,286.88,65,86,1.6,PL,1724372005
276,olinda,-8.0089,-34.8553,298.44,72,8,7.48,BR,1724372006
277,heiloo,52.6,4.7,293.7,75,100,10.76,NL,1724372007
278,yanam,16.7333,82.2167,297.93,95,98,1.07,IN,1724372008
279,taibet,33.0829,6.3998,303.48,28,27,3.47,DZ,1724372010
280,dolores,-36.3132,-57.6792,280.05,75,99,6.13,AR,1724371774
281,illizi,26.4833,8.4667,302.79,18,0,3.04,DZ,1724372013
282,prince rupert,54.3161,-130.3201,288.2,84,75,6.69,CA,1724372014
283,hervey bay,-25.2986,152.8535,292.35,74,0,2.36,AU,1724372016
284,thunder bay,48.4001,-89.3168,293.16,58,69,2.71,CA,1724371942
285,barakani,-12.1356,44.4317,296.65,76,3,2.79,KM,1724372018
286,choyr,46.3611,108.3611,290.38,80,56,2.68,MN,1724372020
287,noumea,-22.2763,166.4572,298.15,99,3,1.87,NC,1724372021
288,bahia de caraquez,-0.6,-80.4167,296.07,82,83,3.78,EC,1724372022
289,bubaque,11.2833,-15.8333,299.94,84,77,6.76,GW,1724372024
290,tobelo,1.7284,128.0095,300.56,80,100,0.96,ID,1724372025
291,tekane,1.7284,128.0095,300.56,80,100,0.96,ID,1724372025
292,malanje,-9.5402,16.341,291.87,50,73,2.05,AO,1724372028
293,hamilton,39.1834,-84.5333,297.28,48,0,2.57,US,1724371945
294,pushkar,26.5,74.55,298.75,83,100,2.14,IN,1724372030
295,north bay,46.3168,-79.4663,292.01,69,0,3.91,CA,1724372031
296,vel'sk,61.0701,42.0983,283.81,92,1,1.91,RU,1724372033
297,pierre,44.3683,-100.351,302.66,58,0,3.6,US,1724372034
298,punta alta,-38.8759,-62.0736,279.13,75,50,2.85,AR,1724372035
299,bonthe,7.5264,-12.505,297.77,90,90,3.21,SL,1724372037
300,leninskoye,41.7589,69.3864,294.85,27,0,2.63,KZ,1724372038
301,saint-francois,46.4154,3.9054,285.84,94,0,1.03,FR,1724372039
302,kapit,2.0167,112.9333,295.72,99,100,0.4,MY,1724372040
303,pervomayskoye,43.919,46.7102,294.8,75,44,2.92,RU,1724372042
304,devonport,-41.1667,146.35,286.77,85,99,0.45,AU,1724372043
305,utrik,11.2278,169.8474,301.51,78,100,7.5,MH,1724372044
306,port macquarie,-31.4333,152.9167,292.63,65,31,0.89,AU,1724372046
307,hami,42.8,93.45,299.97,20,4,3.06,CN,1724372047
308,ukiah,39.1502,-123.2078,296.09,46,0,3.09,US,1724372048
309,shagonar,51.5333,92.8,286.71,68,3,0.24,RU,1724372050
310,antsiranana,-12.2787,49.2917,294.99,70,2,5.41,MG,1724372051
311,sao joao da barra,-21.6403,-41.0511,296.67,76,0,11.68,BR,1724372052
312,opuwo,-18.0607,13.84,290.28,13,0,2.07,NA,1724372054
313,mazagao,-0.115,-51.2894,300.55,76,39,3.92,BR,1724372055
314,semporna,4.4818,118.6112,299.11,88,100,1.44,MY,1724372056
315,fomboni,-12.28,43.7425,297.49,72,10,3.26,KM,1724372057
316,gadzhiyevo,69.2551,33.3362,286.11,71,67,5.67,RU,1724372059
317,puerto deseado,-47.7503,-65.8938,278.43,76,100,3.06,AR,1724372060
318,rio grande,-32.035,-52.0986,286.03,91,100,5.6,BR,1724371815
319,port glaud,-32.035,-52.0986,286.03,91,100,5.6,BR,1724371815
320,kuta,-8.7233,115.1723,299.12,94,20,2.06,ID,1724372064
321,tsiombe,-25.3,45.4833,290.76,80,0,1.8,MG,1724372065
322,mogadishu,2.0371,45.3438,297.92,84,100,8.94,SO,1724371923
323,greymouth,-42.4667,171.2,285.02,97,100,7.55,NZ,1724371981
324,an nuhud,12.7,28.4333,296.61,78,83,5.38,SD,1724371814
325,essex,40.7834,-74.2163,295.69,60,0,2.57,US,1724372070
326,nuuk,64.1835,-51.7216,278.49,87,100,3.6,GL,1724371920
327,caluula,11.9661,50.7569,302.28,61,66,2.28,SO,1724372073
328,sultanah,24.4926,39.5857,306.4,35,40,3.09,SA,1724372074
329,puerto lempira,15.2667,-83.7667,302.23,79,40,2.57,HN,1724372076
330,pio duran,13.0293,123.445,301.07,80,100,1.52,PH,1724372077
331,keflavik,64.0049,-22.5624,279.39,81,75,13.38,IS,1724372078
332,trinity beach,-16.7888,145.6968,299.85,78,100,6.47,AU,1724372080
333,kayangel,8.0823,134.7173,302.39,74,69,4.89,PW,1724372081
334,ghat,24.9647,10.1728,305.74,28,3,2.63,LY,1724372082
335,dakhla,23.6848,-15.958,294.47,82,48,9.06,EH,1724372084
336,alotau,-10.3069,150.4462,299.59,93,97,2.99,PG,1724372085
337,kapa'a,22.0752,-159.319,302.33,67,75,6.17,US,1724372086
338,kirensk,57.7853,108.1119,289.97,70,48,1.05,RU,1724372087
339,port moresby,-9.4431,147.1797,299.54,83,97,1.61,PG,1724371905
340,kanniyakumari,8.0833,77.5667,298.7,87,100,6.01,IN,1724372090
341,san juan de miraflores,-12.1629,-76.9635,288.8,86,86,4.09,PE,1724372091
342,eldorado at santa fe,35.5264,-105.9347,303.12,29,0,12.35,US,1724372093
343,masterton,-40.9597,175.6575,286.03,69,85,5.07,NZ,1724372094
344,mao,39.8885,4.2658,298.46,83,0,2.57,ES,1724372096
345,laojunmiao,39.8333,97.7333,292.47,40,77,0.94,CN,1724372097
346,checy,47.894,2.023,289.27,83,100,2.98,FR,1724372098
347,uturoa,-16.7333,-151.4333,298.4,74,41,8.53,PF,1724372099
348,pasto,1.2136,-77.2811,284.41,86,72,2.63,CO,1724372093
349,victorica,-36.2151,-65.4359,281.11,47,20,2.5,AR,1724372102
350,kuqa,41.7278,82.9364,297.62,40,100,2.55,CN,1724372103
351,raduzhny,62.0961,77.475,286.02,70,92,1.2,RU,1724372105
352,bodaybo,57.8506,114.1933,291.4,72,77,0.87,RU,1724372106
353,bargara,57.8506,114.1933,291.4,72,77,0.87,RU,1724372106
354,port elizabeth,-33.918,25.5701,286.31,81,0,11.32,ZA,1724372109
355,thompson,55.7433,-97.8635,291.25,94,100,3.09,CA,1724371559
356,touros,-5.1989,-35.4608,297.85,78,17,6.4,BR,1724372111
357,cidreira,-30.1811,-50.2056,289.7,93,99,2.31,BR,1724372113
358,mount isa,-20.7333,139.5,300.02,32,1,4.63,AU,1724372114
359,fort st. john,56.2499,-120.8529,296.8,33,66,6.19,CA,1724371902
360,altdorf,49.3875,11.3572,285.33,87,1,1.94,DE,1724372117
361,mo i rana,66.3128,14.1428,289.41,79,100,3.13,NO,1724372118
362,vingt cinq,66.3128,14.1428,289.41,79,100,3.13,NO,1724372118
363,andergrove,-21.0833,149.1833,295.54,66,0,2.36,AU,1724372121
364,anadyr,64.75,177.4833,284.43,66,75,5.81,RU,1724372122
365,saint-paul,-21.0096,55.2707,294.2,78,30,2.4,RE,1724372125
366,yaren,-0.5472,166.916,301.93,73,42,7.65,NR,1724372127
367,yarmouth,41.7057,-70.2286,294.18,75,100,5.14,US,1724372128
368,huarmey,-10.0681,-78.1522,289.46,88,18,6.66,PE,1724372129
369,newnham,-41.3833,147.1333,286.68,71,40,7.72,AU,1724372131
370,zhanaozen,43.3,52.8,299.73,22,60,3.26,KZ,1724372132
371,derbent,42.0678,48.2899,299.16,67,93,3.19,RU,1724372133
372,lorengau,-2.0226,147.2712,300.2,84,100,2.83,PG,1724372135
373,usogorsk,63.4106,48.6872,283.01,87,64,1.4,RU,1724372136
374,el salto,20.3333,-104.5,293.58,86,100,1.49,MX,1724372137
375,marsabit,2.3284,37.9899,291.67,57,71,1.12,KE,1724372138
376,wakkanai,45.4094,141.6739,297.14,100,75,7.2,JP,1724372140
377,qina,26.1642,32.7267,305.48,26,8,2.67,EG,1724372073
378,bikenibeu village,1.3673,173.1241,304.13,66,40,3.6,KI,1724372142
379,leer,53.2316,7.461,291.45,78,100,6.65,DE,1724372144
380,north bend,43.4065,-124.2243,290.1,77,40,3.6,US,1724372145
381,rio verde de mato grosso,-18.9181,-54.8442,301.57,21,6,2.39,BR,1724372147
382,ambalangoda,6.2355,80.0538,300.92,84,100,2.72,LK,1724372148
383,kegen,43.0197,79.2203,284.16,73,100,2.31,KZ,1724372150
384,kembe,4.6228,21.8865,293.22,94,100,1.01,CF,1724372151
385,dalandzadgad,43.5708,104.425,295.71,40,0,4.59,MN,1724372152
386,sabang,5.8933,95.3214,301.73,69,100,0.95,ID,1724372154
387,ad dilam,23.9915,47.1627,306.19,35,17,3.11,SA,1724372155
388,yekaterinovka,52.0508,44.3451,287.47,62,30,3.53,RU,1724372156
389,jilma,35.2731,9.4239,297.08,68,0,1.45,TN,1724372158
390,ataq,14.5377,46.8319,296.5,69,55,4.76,YE,1724372159
391,buka,40.8108,69.1986,292.78,34,0,3.1,UZ,1724372160
392,volcan,8.7667,-82.6333,286.99,95,100,1.96,PA,1724372161
393,anacapri,40.5558,14.2136,298.73,89,0,1.54,IT,1724372163
394,afaahiti,-17.75,-149.2833,296.45,76,24,11.52,PF,1724372164
395,palikir - national government center,6.9248,158.1611,303.62,74,75,2.57,FM,1724372165
396,humaita,-7.5099,-63.0249,303.0,34,1,1.1,BR,1724372094
397,ballina,-28.8667,153.5667,294.11,68,82,5.78,AU,1724372106
398,mukalla,14.5425,49.1242,301.08,74,47,3.37,YE,1724372169
399,bir hadaj,31.0263,34.7031,297.6,82,0,1.88,IL,1724372170
400,rawatsar,29.2833,74.3833,303.77,65,97,3.37,IN,1724372172
401,arteche,12.2645,125.4048,300.24,87,100,1.15,PH,1724372173
402,tuy hoa,13.0833,109.3,300.71,70,98,1.58,VN,1724372174
403,geraldton,-28.7667,114.6,292.38,77,10,4.63,AU,1724372176
404,taltal,-25.4,-70.4833,287.89,60,0,1.54,CL,1724372178
405,island harbour,50.724,-1.2758,290.39,72,100,2.24,GB,1724372179
406,yatou,37.15,122.3833,300.79,78,0,1.38,CN,1724372181
407,mil'kovo,55.6078,37.7956,291.12,60,84,4.04,RU,1724372182
408,tranovaho,55.6078,37.7956,291.12,60,84,4.04,RU,1724372182
409,lerwick,60.1545,-1.1494,284.31,86,64,9.15,GB,1724372185
410,upington,-28.4478,21.2561,283.36,27,0,1.54,ZA,1724372101
411,wesselsbron,-27.8549,26.3658,280.86,82,0,3.44,ZA,1724372188
412,kristiansund,63.1105,7.728,286.88,87,100,1.54,NO,1724371607
413,viqueque,-8.8673,126.3658,299.02,71,64,1.88,TL,1724372190
414,ketovo,55.355,65.3258,287.6,97,100,6.71,RU,1724372192
415,itoman,26.1247,127.6694,304.36,86,75,2.57,JP,1724372193
416,tolga,34.7222,5.3785,304.15,27,0,1.05,DZ,1724372194
417,port augusta,-32.5,137.7667,297.24,30,51,11.51,AU,1724372195
418,al bawiti,28.3492,28.8659,301.8,46,0,3.07,EG,1724372197
419,qaisumah,28.3112,46.1273,307.13,38,0,5.14,SA,1724372198
420,kourou,5.1552,-52.6478,299.12,85,25,3.99,GF,1724372199
421,puerto vallarta,20.6204,-105.2307,304.77,66,75,5.66,MX,1724372158
422,kharp,66.8014,65.8081,281.3,98,89,3.75,RU,1724372202
423,kushnarenkovo,55.105,55.3508,284.46,94,8,3.06,RU,1724372203
424,kalach,50.4258,41.0261,291.53,69,71,3.38,RU,1724372205
425,portland,45.5234,-122.6762,294.88,67,100,1.54,US,1724372026
426,rabo de peixe,37.8,-25.5833,296.88,78,20,3.09,PT,1724372207
427,pocone,-16.2567,-56.6228,302.39,22,1,2.4,BR,1724372208
428,tindouf,27.6711,-8.1474,302.75,21,0,7.74,DZ,1724372210
429,bensenville,41.955,-87.9401,297.22,53,75,2.57,US,1724371937
430,yangambi,0.8102,24.4336,293.1,96,89,1.13,CD,1724372212
431,sabinas,27.85,-101.1167,311.8,24,34,9.35,MX,1724372213
432,castrop-rauxel,51.55,7.3167,292.4,64,95,1.34,DE,1724372215
433,maryborough,-25.5333,152.7,297.82,53,0,1.31,AU,1724372216
434,mitu,1.1983,-70.1733,297.89,80,86,1.52,CO,1724371980
435,ende,-8.8432,121.6623,298.18,79,99,1.64,ID,1724372219
436,muravlenko,63.7898,74.523,283.24,83,70,3.21,RU,1724372220
437,katsuura,35.1333,140.3,300.63,80,50,5.69,JP,1724372222
438,conde,-7.2597,-34.9075,298.85,78,75,4.63,BR,1724372223
439,petropavlovsk-kamchatsky,53.0452,158.6483,290.48,72,75,1.0,RU,1724372225
440,ta`u,-14.2336,-169.5144,299.21,67,65,9.44,AS,1724372226
441,nadym,65.5333,72.5167,280.98,93,100,2.81,RU,1724372227
442,wanning,18.8003,110.3967,301.62,80,91,3.57,CN,1724372229
443,pisco,-13.7,-76.2167,290.18,82,100,5.66,PE,1724372230
444,al jawf,29.5,38.75,301.97,24,1,1.62,SA,1724372231
445,kailua-kona,19.6406,-155.9956,299.97,81,23,1.34,US,1724372232
446,ivins,37.1686,-113.6794,299.35,54,34,3.13,US,1724372234
447,turgen,43.4006,77.5933,293.55,30,69,3.94,KZ,1724372235
448,calderitas,18.55,-88.25,303.21,74,40,0.0,MX,1724372237
449,majene,-3.5403,118.9707,298.36,83,100,2.2,ID,1724372238
450,tralee,52.2704,-9.7026,285.45,94,99,13.26,IE,1724372240
451,eloi mendes,-21.61,-45.5653,292.67,35,0,1.51,BR,1724372241
452,puerto baquerizo moreno,-0.9,-89.6,292.8,80,76,7.93,EC,1724372194
453,itarantim,-15.6597,-40.0656,294.17,83,84,2.37,BR,1724371854
454,ozark,37.0209,-93.206,298.38,56,90,3.08,US,1724372245
455,bathsheba,13.2167,-59.5167,301.49,83,20,4.63,BB,1724372246
456,nantucket,41.2835,-70.0995,292.21,77,0,5.14,US,1724372223
457,muzayri',41.2835,-70.0995,292.21,77,0,5.14,US,1724372223
458,pontianak,-0.0333,109.3333,297.14,100,40,1.54,ID,1724372250
459,muurame,62.1333,25.6667,291.02,93,71,1.42,FI,1724372251
460,vermillion,42.7794,-96.9292,303.09,34,43,6.51,US,1724372101
461,duncan,34.5023,-97.9578,307.09,38,0,8.23,US,1724372230
462,karratha,-20.7377,116.8463,295.17,74,0,3.22,AU,1724372255
463,antofagasta,-23.65,-70.4,286.75,71,45,1.87,CL,1724372060
464,lamu,-2.2717,40.902,297.67,82,76,7.21,KE,1724372258
465,anse a galets,18.8317,-72.8642,303.64,72,82,2.17,HT,1724372259
466,platteville,42.7342,-90.4785,295.2,56,0,3.6,US,1724372260
467,soio,-6.1349,12.3689,294.25,94,75,3.27,AO,1724372262
468,san antonio de pale,-1.4014,5.6325,296.4,84,100,5.93,GQ,1724372263
469,bayang,7.7928,124.1917,296.69,88,99,1.38,PH,1724372264
470,macapa,0.0389,-51.0664,302.14,84,40,6.17,BR,1724372166
471,vila velha,-20.3297,-40.2925,297.12,82,0,5.14,BR,1724371631
472,glace bay,46.1969,-59.957,292.58,91,40,5.14,CA,1724372268
473,summerside,46.3959,-63.7876,292.22,77,26,3.6,CA,1724372270
474,malango,-2.9627,119.9001,293.24,98,99,0.52,ID,1724372271
475,plymouth,41.8334,-70.8328,293.18,77,40,0.0,US,1724372171
476,freetown,8.484,-13.2299,298.99,89,75,4.12,SL,1724372274
477,sisimiut,66.9395,-53.6735,281.59,58,91,3.06,GL,1724372276
478,hayma',66.9395,-53.6735,281.59,58,91,3.06,GL,1724372276
479,jinghong,21.991,100.7341,294.99,100,100,0.47,CN,1724372278
480,dapa,9.7594,126.0531,301.26,72,100,1.55,PH,1724372280
481,morazan,15.3167,-87.6,296.94,92,46,1.55,HN,1724372281
482,doka,13.5167,35.7667,293.88,96,100,2.58,SD,1724372283
483,kalmunai,7.4167,81.8167,299.5,82,100,6.36,LK,1724372284
484,vernon,50.2581,-119.2691,301.9,39,86,1.03,CA,1724372286
485,moab,38.5733,-109.5498,298.18,25,47,4.82,US,1724372287
486,cadale,2.7603,46.3222,297.82,85,100,8.77,SO,1724372288
487,lib,8.3122,167.3766,301.78,74,27,4.22,MH,1724372289
488,aykol,38.1751,77.2132,292.54,59,100,2.22,CN,1724372291
489,belmonte,-15.8631,-38.8828,296.1,86,20,3.18,BR,1724372292
490,laguna,38.421,-121.4238,300.23,51,0,9.26,US,1724372293
491,vetluzhskiy,58.3902,45.4654,282.97,88,0,1.22,RU,1724372295
492,novodvinsk,64.4165,40.8122,286.01,85,0,3.06,RU,1724372296
493,tolanaro,-25.0319,46.9987,290.19,88,0,0.0,MG,1724372297
494,rio san juan,19.6439,-70.0763,300.39,88,100,4.97,DO,1724372299
495,pritzwalk,53.1494,12.1741,291.1,64,99,4.23,DE,1724372300
496,sechura,-5.5569,-80.8222,292.29,72,10,8.04,PE,1724372301
497,vilyuchinsk,52.9306,158.4028,291.3,74,86,0.45,RU,1724372302
498,guerrero negro,27.9769,-114.0611,297.88,60,0,7.15,MX,1724372304
499,del rio,29.3627,-100.8968,316.21,19,0,9.77,US,1724372015
500,tofol,5.3248,163.0078,302.47,71,9,5.32,FM,1724372306
501,babu,24.4167,111.5167,300.33,90,95,0.63,CN,1724372307
502,pokhara,28.2333,83.9833,293.71,86,92,1.64,NP,1724372309
503,vyborg,60.7076,28.7528,290.12,97,57,1.7,RU,1724372310
504,hanzhong,33.0728,107.0303,299.95,79,41,0.85,CN,1724372311
505,codrington,-38.2667,141.9667,285.9,79,100,4.25,AU,1724372313
506,manggar,-2.8833,108.2667,300.41,77,95,5.27,ID,1724372314
507,tasbuget,-2.8833,108.2667,300.41,77,95,5.27,ID,1724372314
508,porbandar,21.6422,69.6093,300.91,82,100,4.91,IN,1724372317
509,la palma,33.8464,-118.0467,302.67,56,20,5.14,US,1724372318
510,cuencame de ceniceros,24.8711,-103.6964,304.63,19,11,8.12,MX,1724372319
511,horta,38.5333,-28.6333,298.16,92,75,5.66,PT,1724372052
512,al minya,28.1099,30.7503,303.21,46,2,4.36,EG,1724372322
513,santa quiteria,-4.3319,-40.1567,298.23,65,3,3.04,BR,1724372323
514,ouellah,-4.3319,-40.1567,298.23,65,3,3.04,BR,1724372323
515,sao vicente,-23.9631,-46.3919,297.17,50,1,1.18,BR,1724372194
516,benjamin constant,-4.3831,-70.0311,300.22,63,27,0.59,BR,1724372327
517,suihua,46.6406,126.9969,291.66,77,0,3.88,CN,1724372328
518,ongjin,37.9347,125.3619,300.56,79,0,3.64,KP,1724372330
519,bowen,-20.0167,148.2333,297.11,61,1,3.94,AU,1724372331
520,necochea,-38.5473,-58.7368,279.87,75,100,7.46,AR,1724372332
521,filadelfia,39.9524,-75.1636,295.87,58,0,2.57,US,1724371697
522,grenada,37.1882,-3.6067,298.66,57,0,2.57,ES,1724372206
523,buenavista del norte,28.3746,-16.861,300.59,70,2,8.84,ES,1724372336
524,riachao das neves,-11.7461,-44.91,297.17,31,2,1.49,BR,1724372337
525,magistral'nyy,56.1725,107.4458,289.43,67,97,1.11,RU,1724372339
526,xining,36.6167,101.7667,290.11,76,37,0.8,CN,1724372340
527,oranjemund,-28.55,16.4333,287.74,67,0,3.73,NA,1724372341
528,bodo,67.28,14.405,291.36,67,100,5.66,NO,1724372343
529,maricopa,33.0581,-112.0476,313.74,23,75,3.6,US,1724372335
530,saint-philippe,-21.3585,55.7679,294.33,68,54,4.16,RE,1724372345
531,nynashamn,58.9034,17.9479,288.45,88,100,7.73,SE,1724372347
532,baharly,38.4362,57.4316,299.39,22,0,0.76,TM,1724372292
533,gariadhar,21.5333,71.5833,300.48,85,100,2.99,IN,1724372349
534,guayaramerin,-10.8368,-65.3614,303.36,34,7,1.55,BO,1724372350
535,isangel,-19.55,169.2667,297.84,64,6,5.27,VU,1724372352
536,miracema do tocantins,-9.5618,-48.3967,302.54,25,5,2.12,BR,1724372353
537,al majaridah,19.1236,41.9111,302.16,78,82,1.66,SA,1724372354
538,mayya,61.7333,130.2811,288.89,80,100,1.9,RU,1724372356
539,chudovo,59.1167,31.6833,290.59,99,65,3.8,RU,1724372357
540,san angelo,31.465,-100.4405,312.26,20,20,4.12,US,1724372184
541,susanville,40.4163,-120.653,298.61,27,63,2.68,US,1724372106
542,brokopondo,4.75,-55.1667,299.78,82,58,5.32,SR,1724372361
543,verdal,63.7933,11.4817,286.73,97,100,2.23,NO,1724372362
544,flying fish cove,-10.4217,105.6791,297.97,88,100,4.12,CX,1724372118
545,pearsall,28.8922,-99.095,312.9,25,1,6.87,US,1724372268
546,makungu,-8.7333,35.2833,285.25,91,27,1.11,TZ,1724372366
547,port hedland,-20.3167,118.5667,296.18,94,75,3.6,AU,1724372367
548,nouadhibou,20.931,-17.0347,297.14,83,0,4.63,MR,1724372369
549,bad sachsa,51.595,10.5555,288.62,80,81,1.48,DE,1724372370
550,taoudenni,22.6783,-3.9836,310.16,29,37,4.85,ML,1724372371
551,pandan,14.0453,124.1694,301.85,82,100,1.85,PH,1724372372
552,grand-lahou,5.1367,-5.0242,296.68,92,94,4.75,CI,1724372374
553,marsa alam,25.0757,34.8918,304.6,45,14,2.08,EG,1724372375
554,kushk,33.2957,61.9522,294.26,25,0,3.25,AF,1724372376
555,valparaiso,-33.0393,-71.6273,282.95,81,0,0.0,CL,1724372174
556,rocky mountain house,52.3668,-114.9188,294.21,52,73,4.63,CA,1724372379
557,nova vicosa,-17.8919,-39.3719,295.54,88,2,3.33,BR,1724372380
558,santa isabel,-23.3156,-46.2214,292.76,40,0,1.08,BR,1724372381
559,fandriana,-20.2333,47.3833,282.29,89,3,1.56,MG,1724372383
560,yulinshi,38.2906,109.7494,297.45,63,76,2.23,CN,1724372384
561,mafinga,-7.25,35.0667,292.11,57,20,2.27,TZ,1724372385
562,port shepstone,-30.7414,30.455,288.1,68,100,0.81,ZA,1724372387
563,shendi,16.6915,33.4341,299.96,70,100,6.6,SD,1724372388
564,pacific grove,36.6177,-121.9166,294.97,80,0,4.12,US,1724372389
565,christchurch,-43.5333,172.6333,289.49,57,100,5.14,NZ,1724372160
566,saddle brooke,-43.5333,172.6333,289.49,57,100,5.14,NZ,1724372160
567,tonghae,37.5439,129.1069,301.89,61,72,3.74,KR,1724372393
568,nikol'sk,53.7189,46.0712,284.94,81,32,2.15,RU,1724372395
569,beitbridge,-22.2167,30.0,289.14,75,8,10.1,ZW,1724372396
570,ghanzi,-21.5667,21.7833,288.11,15,0,2.88,BW,1724372397
571,goniri,11.4833,12.3144,296.33,91,100,2.29,NG,1724372399
572,dalton,34.7698,-84.9702,299.52,70,70,1.13,US,1724372309
573,tchintabaraden,15.8969,5.7985,300.54,59,90,1.65,NE,1724372402
574,jinchang,38.4953,102.1739,296.97,43,50,2.17,CN,1724372403
575,hofbieber,50.5863,9.8353,287.04,70,53,3.26,DE,1724372404
576,mahalapye,-23.1041,26.8142,287.45,76,0,7.82,BW,1724372405
577,juan l. lacaze,-34.4333,-57.4167,282.76,80,100,8.12,UY,1724372407
578,mar del plata,-38.0,-57.56,281.53,91,100,6.26,AR,1724372314
579,ourilandia do norte,-38.0,-57.56,281.53,91,100,6.26,AR,1724372314
580,galesong,-5.3166,119.3661,299.62,71,53,0.83,ID,1724372411
581,devinuwara,-5.3166,119.3661,299.62,71,53,0.83,ID,1724372411
582,puerto yuca,2.9383,-73.2083,299.95,73,99,1.64,CO,1724372413
583,bandar lampung,-5.4254,105.258,297.71,88,76,0.97,ID,1724372415
